{"type": "FeatureCollection", "features": [{"type": "Feature", "geometry": {"type": "Point", "coordinates": [4.892351789324353, 52.375564872801725]}, "properties": {"totaal_bijplaatsingen": 7726, "aantal_niet_aplus": 4901, "aantal_handhavingen": 891, "adres": "Nieuwezijds Voorburgwal 102", "aantal_grofvuil": 1358}}, {"type": "Feature", "geometry": {"type": "Point", "coordinates": [4.963684811132281, 52.318998111433714]}, "properties": {"totaal_bijplaatsingen": 7634, "aantal_niet_aplus": 4810, "aantal_handhavingen": 329, "adres": "Bijlmerdreef 743", "aantal_grofvuil": 2416}}, {"type": "Feature", "geometry": {"type": "Point", "coordinates": [4.851260866800416, 52.38027524391443]}, "properties": {"totaal_bijplaatsingen": 4421, "aantal_niet_aplus": 3479, "aantal_handhavingen": 226, "adres": "Leeuwendalersweg 1", "aantal_grofvuil": 1506}}, {"type": "Feature", "geometry": {"type": "Point", "coordinates": [4.947839821274111, 52.305197252968206]}, "properties": {"totaal_bijplaatsingen": 4352, "aantal_niet_aplus": 3276, "aantal_handhavingen": 418, "adres": "Karspeldreef 4", "aantal_grofvuil": 1964}}, {"type": "Feature", "geometry": {"type": "Point", "coordinates": [4.8983886319254895, 52.37362444121376]}, "properties": {"totaal_bijplaatsingen": 4117, "aantal_niet_aplus": 2510, "aantal_handhavingen": 361, "adres": "Oudezijds Voorburgwal 85", "aantal_grofvuil": 800}}, {"type": "Feature", "geometry": {"type": "Point", "coordinates": [4.889246963923379, 52.37122753251346]}, "properties": {"totaal_bijplaatsingen": 3898, "aantal_niet_aplus": 2562, "aantal_handhavingen": 667, "adres": "Spuistraat 234", "aantal_grofvuil": 670}}, {"type": "Feature", "geometry": {"type": "Point", "coordinates": [4.888486731962883, 52.37078374126205]}, "properties": {"totaal_bijplaatsingen": 3726, "aantal_niet_aplus": 2582, "aantal_handhavingen": 956, "adres": "Singel 297", "aantal_grofvuil": 625}}, {"type": "Feature", "geometry": {"type": "Point", "coordinates": [4.8532504321335175, 52.36576594139656]}, "properties": {"totaal_bijplaatsingen": 3597, "aantal_niet_aplus": 2641, "aantal_handhavingen": 189, "adres": "Hoofdweg 180", "aantal_grofvuil": 871}}, {"type": "Feature", "geometry": {"type": "Point", "coordinates": [4.900016931910344, 52.37288374121463]}, "properties": {"totaal_bijplaatsingen": 3592, "aantal_niet_aplus": 2500, "aantal_handhavingen": 663, "adres": "Nieuwmarkt 10III", "aantal_grofvuil": 1073}}, {"type": "Feature", "geometry": {"type": "Point", "coordinates": [4.922354436055971, 52.413581252028365]}, "properties": {"totaal_bijplaatsingen": 3583, "aantal_niet_aplus": 3047, "aantal_handhavingen": 165, "adres": "Noorderbreedte 153", "aantal_grofvuil": 1687}}, {"type": "Feature", "geometry": {"type": "Point", "coordinates": [4.891451532048152, 52.38457964115295]}, "properties": {"totaal_bijplaatsingen": 3515, "aantal_niet_aplus": 1931, "aantal_handhavingen": 108, "adres": "Westerdok 324", "aantal_grofvuil": 714}}, {"type": "Feature", "geometry": {"type": "Point", "coordinates": [4.902968711824969, 52.363755241273246]}, "properties": {"totaal_bijplaatsingen": 3436, "aantal_niet_aplus": 1978, "aantal_handhavingen": 378, "adres": "Amstel 75", "aantal_grofvuil": 446}}, {"type": "Feature", "geometry": {"type": "Point", "coordinates": [4.936768431872001, 52.39685904093631]}, "properties": {"totaal_bijplaatsingen": 3428, "aantal_niet_aplus": 2368, "aantal_handhavingen": 91, "adres": "Het Laagt 87", "aantal_grofvuil": 768}}, {"type": "Feature", "geometry": {"type": "Point", "coordinates": [4.835994632110228, 52.348872041567546]}, "properties": {"totaal_bijplaatsingen": 3350, "aantal_niet_aplus": 2792, "aantal_handhavingen": 437, "adres": "Maassluisstraat 438", "aantal_grofvuil": 1152}}, {"type": "Feature", "geometry": {"type": "Point", "coordinates": [4.87632242641827, 52.37441911385415]}, "properties": {"totaal_bijplaatsingen": 3255, "aantal_niet_aplus": 2597, "aantal_handhavingen": 551, "adres": "Marnixstraat tegenover 293", "aantal_grofvuil": 1093}}, {"type": "Feature", "geometry": {"type": "Point", "coordinates": [4.975048875787231, 52.31688360057445]}, "properties": {"totaal_bijplaatsingen": 3249, "aantal_niet_aplus": 2216, "aantal_handhavingen": 144, "adres": "Kikkenstein 1014", "aantal_grofvuil": 920}}, {"type": "Feature", "geometry": {"type": "Point", "coordinates": [4.970744721123072, 52.32346276138124]}, "properties": {"totaal_bijplaatsingen": 3186, "aantal_niet_aplus": 2507, "aantal_handhavingen": 269, "adres": "Geldershoofd 116", "aantal_grofvuil": 1559}}, {"type": "Feature", "geometry": {"type": "Point", "coordinates": [4.974466231080799, 52.32075457139092]}, "properties": {"totaal_bijplaatsingen": 3107, "aantal_niet_aplus": 2367, "aantal_handhavingen": 254, "adres": "Groeneveen 252", "aantal_grofvuil": 1381}}, {"type": "Feature", "geometry": {"type": "Point", "coordinates": [4.839621732135176, 52.35514444151181]}, "properties": {"totaal_bijplaatsingen": 3016, "aantal_niet_aplus": 2318, "aantal_handhavingen": 405, "adres": "Carnapstraat 14", "aantal_grofvuil": 1094}}, {"type": "Feature", "geometry": {"type": "Point", "coordinates": [4.873196632019339, 52.366229241337855]}, "properties": {"totaal_bijplaatsingen": 2997, "aantal_niet_aplus": 2464, "aantal_handhavingen": 308, "adres": "Jacob van Lennepstraat 55A", "aantal_grofvuil": 1236}}, {"type": "Feature", "geometry": {"type": "Point", "coordinates": [4.927265391768599, 52.375515571119394]}, "properties": {"totaal_bijplaatsingen": 2953, "aantal_niet_aplus": 2218, "aantal_handhavingen": 579, "adres": "Piet Heinkade 227", "aantal_grofvuil": 1127}}, {"type": "Feature", "geometry": {"type": "Point", "coordinates": [4.952404215447404, 52.39681964210472]}, "properties": {"totaal_bijplaatsingen": 2942, "aantal_niet_aplus": 2138, "aantal_handhavingen": 181, "adres": "IJdoornlaan 347", "aantal_grofvuil": 1113}}, {"type": "Feature", "geometry": {"type": "Point", "coordinates": [4.923116675498076, 52.34977785392845]}, "properties": {"totaal_bijplaatsingen": 2900, "aantal_niet_aplus": 2458, "aantal_handhavingen": 326, "adres": "Pierre Lallementstraat 608", "aantal_grofvuil": 1264}}, {"type": "Feature", "geometry": {"type": "Point", "coordinates": [4.97773214402855, 52.32208776306322]}, "properties": {"totaal_bijplaatsingen": 2885, "aantal_niet_aplus": 2118, "aantal_handhavingen": 217, "adres": "Grubbehoeve 231", "aantal_grofvuil": 1348}}, {"type": "Feature", "geometry": {"type": "Point", "coordinates": [4.927112765714375, 52.367453343665495]}, "properties": {"totaal_bijplaatsingen": 2882, "aantal_niet_aplus": 1648, "aantal_handhavingen": 126, "adres": "Cruquiuskade 10", "aantal_grofvuil": 855}}, {"type": "Feature", "geometry": {"type": "Point", "coordinates": [4.935057631634849, 52.36377725118376]}, "properties": {"totaal_bijplaatsingen": 2881, "aantal_niet_aplus": 2260, "aantal_handhavingen": 158, "adres": "Javastraat 87", "aantal_grofvuil": 828}}, {"type": "Feature", "geometry": {"type": "Point", "coordinates": [4.958725674503371, 52.31126951425684]}, "properties": {"totaal_bijplaatsingen": 2862, "aantal_niet_aplus": 2016, "aantal_handhavingen": 114, "adres": "Haag en Veld 47", "aantal_grofvuil": 1152}}, {"type": "Feature", "geometry": {"type": "Point", "coordinates": [4.902997541713259, 52.34872227138332]}, "properties": {"totaal_bijplaatsingen": 2813, "aantal_niet_aplus": 2166, "aantal_handhavingen": 152, "adres": "Amstelkade 40", "aantal_grofvuil": 917}}, {"type": "Feature", "geometry": {"type": "Point", "coordinates": [4.895731441807275, 52.35559989135308]}, "properties": {"totaal_bijplaatsingen": 2803, "aantal_niet_aplus": 2352, "aantal_handhavingen": 223, "adres": "Govert Flinckstraat 197", "aantal_grofvuil": 1001}}, {"type": "Feature", "geometry": {"type": "Point", "coordinates": [4.968037424579903, 52.32393682403169]}, "properties": {"totaal_bijplaatsingen": 2800, "aantal_niet_aplus": 2270, "aantal_handhavingen": 183, "adres": "Gravestein 35", "aantal_grofvuil": 1390}}, {"type": "Feature", "geometry": {"type": "Point", "coordinates": [4.885512131948272, 52.366454041302006]}, "properties": {"totaal_bijplaatsingen": 2768, "aantal_niet_aplus": 1955, "aantal_handhavingen": 542, "adres": "Keizersgracht 482", "aantal_grofvuil": 475}}, {"type": "Feature", "geometry": {"type": "Point", "coordinates": [4.888722831820678, 52.35181061140029]}, "properties": {"totaal_bijplaatsingen": 2736, "aantal_niet_aplus": 2257, "aantal_handhavingen": 229, "adres": "Van Ostadestraat 45A", "aantal_grofvuil": 1285}}, {"type": "Feature", "geometry": {"type": "Point", "coordinates": [4.957319531077009, 52.3063380415447]}, "properties": {"totaal_bijplaatsingen": 2713, "aantal_niet_aplus": 1705, "aantal_handhavingen": 76, "adres": "Hakfort 23", "aantal_grofvuil": 940}}, {"type": "Feature", "geometry": {"type": "Point", "coordinates": [4.864486326005683, 52.36464014306808]}, "properties": {"totaal_bijplaatsingen": 2695, "aantal_niet_aplus": 2133, "aantal_handhavingen": 183, "adres": "Borgerstraat 124", "aantal_grofvuil": 1142}}, {"type": "Feature", "geometry": {"type": "Point", "coordinates": [4.905706582023899, 52.39260242105447]}, "properties": {"totaal_bijplaatsingen": 2694, "aantal_niet_aplus": 1993, "aantal_handhavingen": 91, "adres": "Distelweg 74A", "aantal_grofvuil": 994}}, {"type": "Feature", "geometry": {"type": "Point", "coordinates": [4.821610667173565, 52.38198344405624]}, "properties": {"totaal_bijplaatsingen": 2657, "aantal_niet_aplus": 2051, "aantal_handhavingen": 107, "adres": "Slotermeerlaan 135", "aantal_grofvuil": 1092}}, {"type": "Feature", "geometry": {"type": "Point", "coordinates": [4.92763056531284, 52.36826338266289]}, "properties": {"totaal_bijplaatsingen": 2656, "aantal_niet_aplus": 2133, "aantal_handhavingen": 345, "adres": "Tweede Coehoornstraat", "aantal_grofvuil": 1434}}, {"type": "Feature", "geometry": {"type": "Point", "coordinates": [4.81299334246082, 52.378001691418966]}, "properties": {"totaal_bijplaatsingen": 2647, "aantal_niet_aplus": 2208, "aantal_handhavingen": 111, "adres": "Burgemeester Van Leeuwenlaan 88", "aantal_grofvuil": 1106}}, {"type": "Feature", "geometry": {"type": "Point", "coordinates": [4.947339595311695, 52.3565547437011]}, "properties": {"totaal_bijplaatsingen": 2616, "aantal_niet_aplus": 1864, "aantal_handhavingen": 238, "adres": "Carolina MacGillavrylaan 1426", "aantal_grofvuil": 812}}, {"type": "Feature", "geometry": {"type": "Point", "coordinates": [4.841545467257712, 52.34999618388805]}, "properties": {"totaal_bijplaatsingen": 2593, "aantal_niet_aplus": 2165, "aantal_handhavingen": 217, "adres": "Rijswijkstraat 141", "aantal_grofvuil": 947}}, {"type": "Feature", "geometry": {"type": "Point", "coordinates": [4.850314532248506, 52.37892654130868]}, "properties": {"totaal_bijplaatsingen": 2589, "aantal_niet_aplus": 1823, "aantal_handhavingen": 170, "adres": "Bos en Lommerweg 234", "aantal_grofvuil": 714}}, {"type": "Feature", "geometry": {"type": "Point", "coordinates": [4.891635731887483, 52.36314314130923]}, "properties": {"totaal_bijplaatsingen": 2573, "aantal_niet_aplus": 1850, "aantal_handhavingen": 398, "adres": "kleine gartmanplantsoen12", "aantal_grofvuil": 563}}, {"type": "Feature", "geometry": {"type": "Point", "coordinates": [4.907508731645547, 52.343188441411456]}, "properties": {"totaal_bijplaatsingen": 2565, "aantal_niet_aplus": 2108, "aantal_handhavingen": 278, "adres": "Vechtstraat 109", "aantal_grofvuil": 1067}}, {"type": "Feature", "geometry": {"type": "Point", "coordinates": [4.967320573782286, 52.297002953491486]}, "properties": {"totaal_bijplaatsingen": 2553, "aantal_niet_aplus": 1727, "aantal_handhavingen": 114, "adres": "Millingenhof 140", "aantal_grofvuil": 892}}, {"type": "Feature", "geometry": {"type": "Point", "coordinates": [4.893775766856899, 52.41733184317542]}, "properties": {"totaal_bijplaatsingen": 2553, "aantal_niet_aplus": 2015, "aantal_handhavingen": 122, "adres": "Stellingweg 343", "aantal_grofvuil": 694}}, {"type": "Feature", "geometry": {"type": "Point", "coordinates": [4.8604608321593386, 52.37496704130941]}, "properties": {"totaal_bijplaatsingen": 2524, "aantal_niet_aplus": 1804, "aantal_handhavingen": 157, "adres": "Jan van Galenstraat 94", "aantal_grofvuil": 688}}, {"type": "Feature", "geometry": {"type": "Point", "coordinates": [4.962354844250682, 52.29708710443115]}, "properties": {"totaal_bijplaatsingen": 2452, "aantal_niet_aplus": 1781, "aantal_handhavingen": 99, "adres": "Opheusdenhof 170", "aantal_grofvuil": 898}}, {"type": "Feature", "geometry": {"type": "Point", "coordinates": [4.900293881747964, 52.35124375137233]}, "properties": {"totaal_bijplaatsingen": 2428, "aantal_niet_aplus": 1769, "aantal_handhavingen": 146, "adres": "Lutmastraat 142", "aantal_grofvuil": 742}}, {"type": "Feature", "geometry": {"type": "Point", "coordinates": [4.859282066583835, 52.37207334398075]}, "properties": {"totaal_bijplaatsingen": 2417, "aantal_niet_aplus": 1773, "aantal_handhavingen": 172, "adres": "Admiraal De Ruijterweg 97", "aantal_grofvuil": 763}}, {"type": "Feature", "geometry": {"type": "Point", "coordinates": [4.838513932247512, 52.36944244141062]}, "properties": {"totaal_bijplaatsingen": 2408, "aantal_niet_aplus": 1942, "aantal_handhavingen": 137, "adres": "Jan Evertsenstraat 401", "aantal_grofvuil": 892}}, {"type": "Feature", "geometry": {"type": "Point", "coordinates": [4.805527742506235, 52.37822601143802]}, "properties": {"totaal_bijplaatsingen": 2404, "aantal_niet_aplus": 1944, "aantal_handhavingen": 120, "adres": "Dirk Sonoystraat 11", "aantal_grofvuil": 995}}, {"type": "Feature", "geometry": {"type": "Point", "coordinates": [4.862355564156049, 52.36551885274624]}, "properties": {"totaal_bijplaatsingen": 2388, "aantal_niet_aplus": 2034, "aantal_handhavingen": 336, "adres": "Hasebroekstraat 101", "aantal_grofvuil": 1256}}, {"type": "Feature", "geometry": {"type": "Point", "coordinates": [4.920287681532854, 52.33821098141256]}, "properties": {"totaal_bijplaatsingen": 2374, "aantal_niet_aplus": 1835, "aantal_handhavingen": 208, "adres": "Amstelvlietstraat 101", "aantal_grofvuil": 933}}, {"type": "Feature", "geometry": {"type": "Point", "coordinates": [4.953004562429233, 52.32151107288958]}, "properties": {"totaal_bijplaatsingen": 2368, "aantal_niet_aplus": 1727, "aantal_handhavingen": 319, "adres": "Dennenrodepad 275", "aantal_grofvuil": 918}}, {"type": "Feature", "geometry": {"type": "Point", "coordinates": [4.878760632006695, 52.36894934130253]}, "properties": {"totaal_bijplaatsingen": 2324, "aantal_niet_aplus": 1703, "aantal_handhavingen": 560, "adres": "Elandsgracht 109", "aantal_grofvuil": 344}}, {"type": "Feature", "geometry": {"type": "Point", "coordinates": [5.009300994462985, 52.34916311345592]}, "properties": {"totaal_bijplaatsingen": 2303, "aantal_niet_aplus": 1870, "aantal_handhavingen": 236, "adres": "Eva Besny\u00f6straat 571", "aantal_grofvuil": 858}}, {"type": "Feature", "geometry": {"type": "Point", "coordinates": [4.932889033383535, 52.36968770229293]}, "properties": {"totaal_bijplaatsingen": 2277, "aantal_niet_aplus": 1671, "aantal_handhavingen": 269, "adres": "Funenpark 6", "aantal_grofvuil": 1057}}, {"type": "Feature", "geometry": {"type": "Point", "coordinates": [4.825689332246625, 52.35913444152119]}, "properties": {"totaal_bijplaatsingen": 2258, "aantal_niet_aplus": 1863, "aantal_handhavingen": 113, "adres": "Comeniusstraat 553", "aantal_grofvuil": 910}}, {"type": "Feature", "geometry": {"type": "Point", "coordinates": [4.895059957199309, 52.37327031577101]}, "properties": {"totaal_bijplaatsingen": 2241, "aantal_niet_aplus": 1537, "aantal_handhavingen": 208, "adres": "Warmoesstraat 163", "aantal_grofvuil": 286}}, {"type": "Feature", "geometry": {"type": "Point", "coordinates": [4.897606831952839, 52.3766752411936]}, "properties": {"totaal_bijplaatsingen": 2233, "aantal_niet_aplus": 2179, "aantal_handhavingen": 23, "adres": "Damrak 12", "aantal_grofvuil": 82}}, {"type": "Feature", "geometry": {"type": "Point", "coordinates": [4.840621332170241, 52.36068284146862]}, "properties": {"totaal_bijplaatsingen": 2230, "aantal_niet_aplus": 1773, "aantal_handhavingen": 116, "adres": "Derkinderenstraat 48", "aantal_grofvuil": 869}}, {"type": "Feature", "geometry": {"type": "Point", "coordinates": [4.968260735268782, 52.37029989339651]}, "properties": {"totaal_bijplaatsingen": 2213, "aantal_niet_aplus": 1760, "aantal_handhavingen": 234, "adres": "Kees Broekmanstraat 624", "aantal_grofvuil": 1007}}, {"type": "Feature", "geometry": {"type": "Point", "coordinates": [4.948115862565784, 52.326806382838654]}, "properties": {"totaal_bijplaatsingen": 2212, "aantal_niet_aplus": 1418, "aantal_handhavingen": 92, "adres": "Dalsteindreef 434", "aantal_grofvuil": 820}}, {"type": "Feature", "geometry": {"type": "Point", "coordinates": [4.917848241563092, 52.34033937140369]}, "properties": {"totaal_bijplaatsingen": 2207, "aantal_niet_aplus": 1663, "aantal_handhavingen": 316, "adres": "Korte Ouderkerkerdijk 5B", "aantal_grofvuil": 777}}, {"type": "Feature", "geometry": {"type": "Point", "coordinates": [4.876000506179686, 52.35815031407648]}, "properties": {"totaal_bijplaatsingen": 2191, "aantal_niet_aplus": 1805, "aantal_handhavingen": 292, "adres": "Van Eeghenstraat 28", "aantal_grofvuil": 815}}, {"type": "Feature", "geometry": {"type": "Point", "coordinates": [4.852664966546631, 52.36434721412213]}, "properties": {"totaal_bijplaatsingen": 2178, "aantal_niet_aplus": 1798, "aantal_handhavingen": 198, "adres": "Postjesweg 108", "aantal_grofvuil": 888}}, {"type": "Feature", "geometry": {"type": "Point", "coordinates": [4.8995398316908405, 52.34292294143541]}, "properties": {"totaal_bijplaatsingen": 2173, "aantal_niet_aplus": 1616, "aantal_handhavingen": 209, "adres": "Uiterwaardenstraat 195", "aantal_grofvuil": 718}}, {"type": "Feature", "geometry": {"type": "Point", "coordinates": [4.88983004183989, 52.355288311371744]}, "properties": {"totaal_bijplaatsingen": 2153, "aantal_niet_aplus": 1673, "aantal_handhavingen": 160, "adres": "Gerard Doustraat 56A", "aantal_grofvuil": 625}}, {"type": "Feature", "geometry": {"type": "Point", "coordinates": [4.840194866460743, 52.34867604440336]}, "properties": {"totaal_bijplaatsingen": 2141, "aantal_niet_aplus": 1610, "aantal_handhavingen": 147, "adres": "Voorburgstraat 256", "aantal_grofvuil": 784}}, {"type": "Feature", "geometry": {"type": "Point", "coordinates": [4.930030931925087, 52.398615740942375]}, "properties": {"totaal_bijplaatsingen": 2124, "aantal_niet_aplus": 1540, "aantal_handhavingen": 77, "adres": "Loenermark 317", "aantal_grofvuil": 702}}, {"type": "Feature", "geometry": {"type": "Point", "coordinates": [4.938268665451796, 52.35872723372205]}, "properties": {"totaal_bijplaatsingen": 2115, "aantal_niet_aplus": 1743, "aantal_handhavingen": 169, "adres": "Sumatrastraat 166", "aantal_grofvuil": 847}}, {"type": "Feature", "geometry": {"type": "Point", "coordinates": [4.803995432523745, 52.37937724143386]}, "properties": {"totaal_bijplaatsingen": 2092, "aantal_niet_aplus": 1564, "aantal_handhavingen": 94, "adres": "Jan Bongastraat 2", "aantal_grofvuil": 715}}, {"type": "Feature", "geometry": {"type": "Point", "coordinates": [4.982736364975168, 52.36220237342613]}, "properties": {"totaal_bijplaatsingen": 2082, "aantal_niet_aplus": 1625, "aantal_handhavingen": 136, "adres": "IJburglaan 399", "aantal_grofvuil": 707}}, {"type": "Feature", "geometry": {"type": "Point", "coordinates": [4.915076807035002, 52.362521493676816]}, "properties": {"totaal_bijplaatsingen": 2061, "aantal_niet_aplus": 1442, "aantal_handhavingen": 417, "adres": "Sarphatistraat 370", "aantal_grofvuil": 420}}, {"type": "Feature", "geometry": {"type": "Point", "coordinates": [4.891599532552459, 52.36632890887848]}, "properties": {"totaal_bijplaatsingen": 2059, "aantal_niet_aplus": 1321, "aantal_handhavingen": 193, "adres": "Reguliersdwarsstraat & Geelvincksteeg", "aantal_grofvuil": 407}}, {"type": "Feature", "geometry": {"type": "Point", "coordinates": [4.87935733203454, 52.37316884127002]}, "properties": {"totaal_bijplaatsingen": 2043, "aantal_niet_aplus": 1586, "aantal_handhavingen": 258, "adres": "Rozengracht 158", "aantal_grofvuil": 561}}, {"type": "Feature", "geometry": {"type": "Point", "coordinates": [4.963989251010418, 52.30270834155306]}, "properties": {"totaal_bijplaatsingen": 2042, "aantal_niet_aplus": 1629, "aantal_handhavingen": 164, "adres": "Maarsenhof 169", "aantal_grofvuil": 1103}}, {"type": "Feature", "geometry": {"type": "Point", "coordinates": [4.92626966480657, 52.36871082352791]}, "properties": {"totaal_bijplaatsingen": 2034, "aantal_niet_aplus": 1383, "aantal_handhavingen": 174, "adres": "Conradstraat 8", "aantal_grofvuil": 859}}, {"type": "Feature", "geometry": {"type": "Point", "coordinates": [4.935298721896015, 52.3988983709255]}, "properties": {"totaal_bijplaatsingen": 2024, "aantal_niet_aplus": 1233, "aantal_handhavingen": 64, "adres": "Buikslotermeerplein 142", "aantal_grofvuil": 444}}, {"type": "Feature", "geometry": {"type": "Point", "coordinates": [4.95858609422399, 52.31983438320282]}, "properties": {"totaal_bijplaatsingen": 2001, "aantal_niet_aplus": 1478, "aantal_handhavingen": 170, "adres": "Janusz Korczakplantsoen 1", "aantal_grofvuil": 898}}, {"type": "Feature", "geometry": {"type": "Point", "coordinates": [4.878040932177961, 52.39137070114072]}, "properties": {"totaal_bijplaatsingen": 1987, "aantal_niet_aplus": 1413, "aantal_handhavingen": 168, "adres": "Spaarndammerstraat 143A", "aantal_grofvuil": 502}}, {"type": "Feature", "geometry": {"type": "Point", "coordinates": [4.87317809205736, 52.371333481300624]}, "properties": {"totaal_bijplaatsingen": 1976, "aantal_niet_aplus": 1686, "aantal_handhavingen": 272, "adres": "Da Costastraat 2", "aantal_grofvuil": 969}}, {"type": "Feature", "geometry": {"type": "Point", "coordinates": [4.896933931917568, 52.371404941234]}, "properties": {"totaal_bijplaatsingen": 1975, "aantal_niet_aplus": 1069, "aantal_handhavingen": 104, "adres": "Oude Hoogstraat 2", "aantal_grofvuil": 325}}, {"type": "Feature", "geometry": {"type": "Point", "coordinates": [4.956556782246494, 52.31199853301017]}, "properties": {"totaal_bijplaatsingen": 1947, "aantal_niet_aplus": 1262, "aantal_handhavingen": 69, "adres": "Hofgeest 146", "aantal_grofvuil": 619}}, {"type": "Feature", "geometry": {"type": "Point", "coordinates": [4.891277363636577, 52.35352918276122]}, "properties": {"totaal_bijplaatsingen": 1936, "aantal_niet_aplus": 1575, "aantal_handhavingen": 157, "adres": "Eerste Jan van der Heijdenstraat 121", "aantal_grofvuil": 757}}, {"type": "Feature", "geometry": {"type": "Point", "coordinates": [4.893753311811459, 52.35458503136603]}, "properties": {"totaal_bijplaatsingen": 1932, "aantal_niet_aplus": 1436, "aantal_handhavingen": 181, "adres": "Sarphatipark 1", "aantal_grofvuil": 531}}, {"type": "Feature", "geometry": {"type": "Point", "coordinates": [4.92395356578911, 52.36994994364911]}, "properties": {"totaal_bijplaatsingen": 1922, "aantal_niet_aplus": 1068, "aantal_handhavingen": 73, "adres": "Oostenburgervoorstraat 26", "aantal_grofvuil": 418}}, {"type": "Feature", "geometry": {"type": "Point", "coordinates": [4.859725166614825, 52.37450210394543]}, "properties": {"totaal_bijplaatsingen": 1917, "aantal_niet_aplus": 1224, "aantal_handhavingen": 63, "adres": "Bestev\u00e2erstraat 62", "aantal_grofvuil": 651}}, {"type": "Feature", "geometry": {"type": "Point", "coordinates": [4.849246432035311, 52.34930154152784]}, "properties": {"totaal_bijplaatsingen": 1914, "aantal_niet_aplus": 1555, "aantal_handhavingen": 103, "adres": "Rietwijkerstraat 32", "aantal_grofvuil": 694}}, {"type": "Feature", "geometry": {"type": "Point", "coordinates": [4.8736018720659615, 52.37282694128852]}, "properties": {"totaal_bijplaatsingen": 1908, "aantal_niet_aplus": 1499, "aantal_handhavingen": 157, "adres": "Da Costakade 13", "aantal_grofvuil": 653}}, {"type": "Feature", "geometry": {"type": "Point", "coordinates": [4.909000265731727, 52.354242643946186]}, "properties": {"totaal_bijplaatsingen": 1906, "aantal_niet_aplus": 1317, "aantal_handhavingen": 147, "adres": "Weesperzijde 63", "aantal_grofvuil": 711}}, {"type": "Feature", "geometry": {"type": "Point", "coordinates": [4.889717866710422, 52.40444091337262]}, "properties": {"totaal_bijplaatsingen": 1888, "aantal_niet_aplus": 1499, "aantal_handhavingen": 129, "adres": "ms. Oslofjordweg 703", "aantal_grofvuil": 732}}, {"type": "Feature", "geometry": {"type": "Point", "coordinates": [4.9596899143277895, 52.30015799440372]}, "properties": {"totaal_bijplaatsingen": 1882, "aantal_niet_aplus": 1581, "aantal_handhavingen": 208, "adres": "Nieuwlandhof 183", "aantal_grofvuil": 1159}}, {"type": "Feature", "geometry": {"type": "Point", "coordinates": [4.936867586135328, 52.40317806312499]}, "properties": {"totaal_bijplaatsingen": 1879, "aantal_niet_aplus": 1443, "aantal_handhavingen": 240, "adres": "H. Cleyndertweg 431", "aantal_grofvuil": 826}}, {"type": "Feature", "geometry": {"type": "Point", "coordinates": [4.887803631995476, 52.374622041235895]}, "properties": {"totaal_bijplaatsingen": 1879, "aantal_niet_aplus": 1337, "aantal_handhavingen": 436, "adres": "Herengracht 181", "aantal_grofvuil": 279}}, {"type": "Feature", "geometry": {"type": "Point", "coordinates": [4.906428166278882, 52.388820843490734]}, "properties": {"totaal_bijplaatsingen": 1870, "aantal_niet_aplus": 1334, "aantal_handhavingen": 42, "adres": "Ranonkelkade 27", "aantal_grofvuil": 525}}, {"type": "Feature", "geometry": {"type": "Point", "coordinates": [4.944212012491768, 52.31863845298058]}, "properties": {"totaal_bijplaatsingen": 1861, "aantal_niet_aplus": 1379, "aantal_handhavingen": 106, "adres": "Boeninlaan 308", "aantal_grofvuil": 829}}, {"type": "Feature", "geometry": {"type": "Point", "coordinates": [4.908129666267803, 52.38942074347306]}, "properties": {"totaal_bijplaatsingen": 1856, "aantal_niet_aplus": 1519, "aantal_handhavingen": 75, "adres": "Heimansweg 36", "aantal_grofvuil": 826}}, {"type": "Feature", "geometry": {"type": "Point", "coordinates": [4.962636395260669, 52.39248788211076]}, "properties": {"totaal_bijplaatsingen": 1848, "aantal_niet_aplus": 1331, "aantal_handhavingen": 80, "adres": "Waalenburgsingel 159", "aantal_grofvuil": 656}}, {"type": "Feature", "geometry": {"type": "Point", "coordinates": [4.960674331699923, 52.392829240898784]}, "properties": {"totaal_bijplaatsingen": 1841, "aantal_niet_aplus": 1285, "aantal_handhavingen": 88, "adres": "Volendammerweg 212", "aantal_grofvuil": 637}}, {"type": "Feature", "geometry": {"type": "Point", "coordinates": [4.887795132037132, 52.38020734119508]}, "properties": {"totaal_bijplaatsingen": 1821, "aantal_niet_aplus": 1405, "aantal_handhavingen": 504, "adres": "Prinsengracht 8", "aantal_grofvuil": 359}}, {"type": "Feature", "geometry": {"type": "Point", "coordinates": [4.98410414087687, 52.30093182151065]}, "properties": {"totaal_bijplaatsingen": 1814, "aantal_niet_aplus": 1051, "aantal_handhavingen": 88, "adres": "Vianenstraat 2", "aantal_grofvuil": 468}}, {"type": "Feature", "geometry": {"type": "Point", "coordinates": [4.916978531893961, 52.384141241084926]}, "properties": {"totaal_bijplaatsingen": 1812, "aantal_niet_aplus": 1364, "aantal_handhavingen": 90, "adres": "Bankwerkerij 177", "aantal_grofvuil": 349}}, {"type": "Feature", "geometry": {"type": "Point", "coordinates": [4.956140131740238, 52.39461234089845]}, "properties": {"totaal_bijplaatsingen": 1800, "aantal_niet_aplus": 1454, "aantal_handhavingen": 159, "adres": "Wieringerwaardstraat 38", "aantal_grofvuil": 917}}, {"type": "Feature", "geometry": {"type": "Point", "coordinates": [4.918138612052587, 52.40622840091995]}, "properties": {"totaal_bijplaatsingen": 1799, "aantal_niet_aplus": 1410, "aantal_handhavingen": 116, "adres": "Ankerplaats 22", "aantal_grofvuil": 803}}, {"type": "Feature", "geometry": {"type": "Point", "coordinates": [4.887765131787377, 52.3465453414415]}, "properties": {"totaal_bijplaatsingen": 1798, "aantal_niet_aplus": 1414, "aantal_handhavingen": 146, "adres": "Deurloostraat 108", "aantal_grofvuil": 663}}, {"type": "Feature", "geometry": {"type": "Point", "coordinates": [4.899062677746501, 52.35261342328679]}, "properties": {"totaal_bijplaatsingen": 1797, "aantal_niet_aplus": 1409, "aantal_handhavingen": 162, "adres": "Rustenburgerstraat 225", "aantal_grofvuil": 739}}, {"type": "Feature", "geometry": {"type": "Point", "coordinates": [4.852642666420442, 52.3831123828644]}, "properties": {"totaal_bijplaatsingen": 1795, "aantal_niet_aplus": 1461, "aantal_handhavingen": 139, "adres": "Kijkduinstraat 95", "aantal_grofvuil": 822}}, {"type": "Feature", "geometry": {"type": "Point", "coordinates": [4.943986152510156, 52.31970281296617]}, "properties": {"totaal_bijplaatsingen": 1788, "aantal_niet_aplus": 1263, "aantal_handhavingen": 83, "adres": "Alfred D\u00f6blinstraat 84", "aantal_grofvuil": 817}}, {"type": "Feature", "geometry": {"type": "Point", "coordinates": [4.875079431987557, 52.363444741353]}, "properties": {"totaal_bijplaatsingen": 1780, "aantal_niet_aplus": 1356, "aantal_handhavingen": 142, "adres": "Eerste Constantijn Huygensstraat 59", "aantal_grofvuil": 565}}, {"type": "Feature", "geometry": {"type": "Point", "coordinates": [4.873990726474041, 52.37631560384143]}, "properties": {"totaal_bijplaatsingen": 1764, "aantal_niet_aplus": 829, "aantal_handhavingen": 78, "adres": "Frederik Hendrikstraat 47", "aantal_grofvuil": 431}}, {"type": "Feature", "geometry": {"type": "Point", "coordinates": [4.904229131901111, 52.37498924118751]}, "properties": {"totaal_bijplaatsingen": 1760, "aantal_niet_aplus": 1385, "aantal_handhavingen": 304, "adres": "Prins Hendrikkade 55", "aantal_grofvuil": 430}}, {"type": "Feature", "geometry": {"type": "Point", "coordinates": [4.914829631961315, 52.39144654103742]}, "properties": {"totaal_bijplaatsingen": 1760, "aantal_niet_aplus": 1261, "aantal_handhavingen": 77, "adres": "Mosveld 24", "aantal_grofvuil": 524}}, {"type": "Feature", "geometry": {"type": "Point", "coordinates": [4.993518192507954, 52.35940023210557]}, "properties": {"totaal_bijplaatsingen": 1752, "aantal_niet_aplus": 1328, "aantal_handhavingen": 134, "adres": "Daguerrestraat 119", "aantal_grofvuil": 582}}, {"type": "Feature", "geometry": {"type": "Point", "coordinates": [4.954004264544803, 52.31026253429677]}, "properties": {"totaal_bijplaatsingen": 1733, "aantal_niet_aplus": 1252, "aantal_handhavingen": 62, "adres": "Hoptille 151", "aantal_grofvuil": 726}}, {"type": "Feature", "geometry": {"type": "Point", "coordinates": [4.916509886478572, 52.40999972314688]}, "properties": {"totaal_bijplaatsingen": 1726, "aantal_niet_aplus": 1418, "aantal_handhavingen": 66, "adres": "Binnenvaart & Westerlengte", "aantal_grofvuil": 838}}, {"type": "Feature", "geometry": {"type": "Point", "coordinates": [4.855020896635588, 52.37218444400294]}, "properties": {"totaal_bijplaatsingen": 1724, "aantal_niet_aplus": 1433, "aantal_handhavingen": 95, "adres": "Marco Polostraat 266", "aantal_grofvuil": 583}}, {"type": "Feature", "geometry": {"type": "Point", "coordinates": [4.955537491199061, 52.3214519914382]}, "properties": {"totaal_bijplaatsingen": 1723, "aantal_niet_aplus": 1311, "aantal_handhavingen": 180, "adres": "Darlingstraat 785", "aantal_grofvuil": 711}}, {"type": "Feature", "geometry": {"type": "Point", "coordinates": [4.843924572293363, 52.37990548131934]}, "properties": {"totaal_bijplaatsingen": 1704, "aantal_niet_aplus": 1422, "aantal_handhavingen": 67, "adres": "Sinjeur Semeynsstraat 29", "aantal_grofvuil": 745}}, {"type": "Feature", "geometry": {"type": "Point", "coordinates": [4.992097791264361, 52.35965435105489]}, "properties": {"totaal_bijplaatsingen": 1700, "aantal_niet_aplus": 1336, "aantal_handhavingen": 103, "adres": "Erich Salomonstraat 49", "aantal_grofvuil": 604}}, {"type": "Feature", "geometry": {"type": "Point", "coordinates": [4.894507038796169, 52.37523559196736]}, "properties": {"totaal_bijplaatsingen": 1690, "aantal_niet_aplus": 1489, "aantal_handhavingen": 5, "adres": "Nieuwendijk 168", "aantal_grofvuil": 17}}, {"type": "Feature", "geometry": {"type": "Point", "coordinates": [4.988755420834348, 52.29894446151248]}, "properties": {"totaal_bijplaatsingen": 1680, "aantal_niet_aplus": 1000, "aantal_handhavingen": 61, "adres": "Wamelplein 169", "aantal_grofvuil": 563}}, {"type": "Feature", "geometry": {"type": "Point", "coordinates": [4.820288882939642, 52.38068154740218]}, "properties": {"totaal_bijplaatsingen": 1678, "aantal_niet_aplus": 1417, "aantal_handhavingen": 74, "adres": "Bernard Loderstraat 15", "aantal_grofvuil": 800}}, {"type": "Feature", "geometry": {"type": "Point", "coordinates": [4.854882266342948, 52.3796852829018]}, "properties": {"totaal_bijplaatsingen": 1676, "aantal_niet_aplus": 1266, "aantal_handhavingen": 125, "adres": "Vier Heemskinderenstraat 50", "aantal_grofvuil": 622}}, {"type": "Feature", "geometry": {"type": "Point", "coordinates": [4.847263832228543, 52.37382374135439]}, "properties": {"totaal_bijplaatsingen": 1668, "aantal_niet_aplus": 1234, "aantal_handhavingen": 107, "adres": "Orteliusstraat 328", "aantal_grofvuil": 600}}, {"type": "Feature", "geometry": {"type": "Point", "coordinates": [4.926491205901203, 52.37944277350581]}, "properties": {"totaal_bijplaatsingen": 1666, "aantal_niet_aplus": 1402, "aantal_handhavingen": 166, "adres": "Sumatrakade 1157", "aantal_grofvuil": 482}}, {"type": "Feature", "geometry": {"type": "Point", "coordinates": [4.910465415563418, 52.34409057407628]}, "properties": {"totaal_bijplaatsingen": 1661, "aantal_niet_aplus": 1413, "aantal_handhavingen": 223, "adres": "Trompenburgstraat 4", "aantal_grofvuil": 774}}, {"type": "Feature", "geometry": {"type": "Point", "coordinates": [4.904964765610991, 52.3429078141229]}, "properties": {"totaal_bijplaatsingen": 1654, "aantal_niet_aplus": 1231, "aantal_handhavingen": 111, "adres": "Hunzestraat 75", "aantal_grofvuil": 549}}, {"type": "Feature", "geometry": {"type": "Point", "coordinates": [4.815767642439524, 52.37732314141622]}, "properties": {"totaal_bijplaatsingen": 1641, "aantal_niet_aplus": 1277, "aantal_handhavingen": 56, "adres": "Karel van de Woestijnestraat 1", "aantal_grofvuil": 432}}, {"type": "Feature", "geometry": {"type": "Point", "coordinates": [4.913244732093554, 52.40783264092197]}, "properties": {"totaal_bijplaatsingen": 1629, "aantal_niet_aplus": 1342, "aantal_handhavingen": 57, "adres": "Banne Buikslootlaan 97", "aantal_grofvuil": 684}}, {"type": "Feature", "geometry": {"type": "Point", "coordinates": [4.900733825621063, 52.34021092418306]}, "properties": {"totaal_bijplaatsingen": 1623, "aantal_niet_aplus": 1209, "aantal_handhavingen": 193, "adres": "President Kennedylaan 17", "aantal_grofvuil": 526}}, {"type": "Feature", "geometry": {"type": "Point", "coordinates": [4.935829205519248, 52.36130674370055]}, "properties": {"totaal_bijplaatsingen": 1616, "aantal_niet_aplus": 1393, "aantal_handhavingen": 121, "adres": "Insulindeweg 59", "aantal_grofvuil": 585}}, {"type": "Feature", "geometry": {"type": "Point", "coordinates": [4.9035100666329, 52.41007484321894]}, "properties": {"totaal_bijplaatsingen": 1615, "aantal_niet_aplus": 1175, "aantal_handhavingen": 48, "adres": "Boomgaardlaan 87", "aantal_grofvuil": 610}}, {"type": "Feature", "geometry": {"type": "Point", "coordinates": [5.004643651154487, 52.35498284105428]}, "properties": {"totaal_bijplaatsingen": 1614, "aantal_niet_aplus": 1285, "aantal_handhavingen": 154, "adres": "Bert Haanstrakade 558", "aantal_grofvuil": 611}}, {"type": "Feature", "geometry": {"type": "Point", "coordinates": [4.86870863207582, 52.3702695413208]}, "properties": {"totaal_bijplaatsingen": 1594, "aantal_niet_aplus": 1146, "aantal_handhavingen": 72, "adres": "Bilderdijkkade 11", "aantal_grofvuil": 465}}, {"type": "Feature", "geometry": {"type": "Point", "coordinates": [4.944492534863201, 52.32412273415987]}, "properties": {"totaal_bijplaatsingen": 1593, "aantal_niet_aplus": 1181, "aantal_handhavingen": 52, "adres": "Charlotte Bront\u00e9straat 24", "aantal_grofvuil": 608}}, {"type": "Feature", "geometry": {"type": "Point", "coordinates": [4.910640431957738, 52.387656341076834]}, "properties": {"totaal_bijplaatsingen": 1589, "aantal_niet_aplus": 1230, "aantal_handhavingen": 43, "adres": "Meidoornplein 11A", "aantal_grofvuil": 667}}, {"type": "Feature", "geometry": {"type": "Point", "coordinates": [4.820189644859429, 52.3794969427763]}, "properties": {"totaal_bijplaatsingen": 1586, "aantal_niet_aplus": 1112, "aantal_handhavingen": 57, "adres": "Slotermeerlaan 103", "aantal_grofvuil": 441}}, {"type": "Feature", "geometry": {"type": "Point", "coordinates": [4.976573664392115, 52.31814469406367]}, "properties": {"totaal_bijplaatsingen": 1585, "aantal_niet_aplus": 1238, "aantal_handhavingen": 109, "adres": "Kruitberg 3021", "aantal_grofvuil": 782}}, {"type": "Feature", "geometry": {"type": "Point", "coordinates": [4.890905411051705, 52.41728271672117]}, "properties": {"totaal_bijplaatsingen": 1585, "aantal_niet_aplus": 1211, "aantal_handhavingen": 62, "adres": "Tjasker 1", "aantal_grofvuil": 506}}, {"type": "Feature", "geometry": {"type": "Point", "coordinates": [4.959349641071909, 52.30729408153207]}, "properties": {"totaal_bijplaatsingen": 1583, "aantal_niet_aplus": 914, "aantal_handhavingen": 57, "adres": "Huigenbos 121", "aantal_grofvuil": 399}}, {"type": "Feature", "geometry": {"type": "Point", "coordinates": [4.804113021464717, 52.35729886211471]}, "properties": {"totaal_bijplaatsingen": 1582, "aantal_niet_aplus": 1190, "aantal_handhavingen": 118, "adres": "Jan Celestraat 1 (grof hoek)", "aantal_grofvuil": 672}}, {"type": "Feature", "geometry": {"type": "Point", "coordinates": [4.909563416229252, 52.38797904348458]}, "properties": {"totaal_bijplaatsingen": 1578, "aantal_niet_aplus": 1308, "aantal_handhavingen": 59, "adres": "Jasmijnstraat 40", "aantal_grofvuil": 684}}, {"type": "Feature", "geometry": {"type": "Point", "coordinates": [4.839239632235193, 52.36835614141648]}, "properties": {"totaal_bijplaatsingen": 1571, "aantal_niet_aplus": 1358, "aantal_handhavingen": 92, "adres": "Jan Voermanstraat 42", "aantal_grofvuil": 761}}, {"type": "Feature", "geometry": {"type": "Point", "coordinates": [4.832575246607314, 52.3525260443934]}, "properties": {"totaal_bijplaatsingen": 1564, "aantal_niet_aplus": 1192, "aantal_handhavingen": 185, "adres": "Jacques Veltmanstraat 1083", "aantal_grofvuil": 434}}, {"type": "Feature", "geometry": {"type": "Point", "coordinates": [5.004361861121215, 52.35029589108964]}, "properties": {"totaal_bijplaatsingen": 1564, "aantal_niet_aplus": 1267, "aantal_handhavingen": 84, "adres": "Emmy Andriessestraat 22", "aantal_grofvuil": 430}}, {"type": "Feature", "geometry": {"type": "Point", "coordinates": [4.822575632436997, 52.38236264136065]}, "properties": {"totaal_bijplaatsingen": 1557, "aantal_niet_aplus": 1410, "aantal_handhavingen": 60, "adres": "David Vosstraat 59", "aantal_grofvuil": 944}}, {"type": "Feature", "geometry": {"type": "Point", "coordinates": [4.896847431709535, 52.3432934414402]}, "properties": {"totaal_bijplaatsingen": 1557, "aantal_niet_aplus": 1074, "aantal_handhavingen": 96, "adres": "Rooseveltlaan 186", "aantal_grofvuil": 432}}, {"type": "Feature", "geometry": {"type": "Point", "coordinates": [4.836095232171815, 52.35729344150586]}, "properties": {"totaal_bijplaatsingen": 1555, "aantal_niet_aplus": 1303, "aantal_handhavingen": 194, "adres": "Willem Frogerstraat 10", "aantal_grofvuil": 692}}, {"type": "Feature", "geometry": {"type": "Point", "coordinates": [4.854417632264484, 52.38431884125797]}, "properties": {"totaal_bijplaatsingen": 1543, "aantal_niet_aplus": 1337, "aantal_handhavingen": 112, "adres": "Solebaystraat 77", "aantal_grofvuil": 848}}, {"type": "Feature", "geometry": {"type": "Point", "coordinates": [4.907146921695803, 52.349685661364745]}, "properties": {"totaal_bijplaatsingen": 1543, "aantal_niet_aplus": 1225, "aantal_handhavingen": 85, "adres": "Jozef Isra\u00eblskade 415", "aantal_grofvuil": 610}}, {"type": "Feature", "geometry": {"type": "Point", "coordinates": [4.902988763323703, 52.34176823286871]}, "properties": {"totaal_bijplaatsingen": 1539, "aantal_niet_aplus": 1273, "aantal_handhavingen": 122, "adres": "Kinderdijkstraat 57", "aantal_grofvuil": 668}}, {"type": "Feature", "geometry": {"type": "Point", "coordinates": [4.96074550168266, 52.39058582091509]}, "properties": {"totaal_bijplaatsingen": 1525, "aantal_niet_aplus": 1118, "aantal_handhavingen": 87, "adres": "Hilversumstraat 115", "aantal_grofvuil": 621}}, {"type": "Feature", "geometry": {"type": "Point", "coordinates": [4.8712273319466695, 52.35485744142648]}, "properties": {"totaal_bijplaatsingen": 1513, "aantal_niet_aplus": 1066, "aantal_handhavingen": 78, "adres": "Cornelis Schuytstraat 34", "aantal_grofvuil": 499}}, {"type": "Feature", "geometry": {"type": "Point", "coordinates": [4.910075263451523, 52.35606674261968]}, "properties": {"totaal_bijplaatsingen": 1499, "aantal_niet_aplus": 1220, "aantal_handhavingen": 138, "adres": "Eerste Oosterparkstraat 50", "aantal_grofvuil": 676}}, {"type": "Feature", "geometry": {"type": "Point", "coordinates": [4.919848125889721, 52.37342853362476]}, "properties": {"totaal_bijplaatsingen": 1498, "aantal_niet_aplus": 961, "aantal_handhavingen": 63, "adres": "Kattenburgerstraat 176", "aantal_grofvuil": 415}}, {"type": "Feature", "geometry": {"type": "Point", "coordinates": [4.903627861754648, 52.35481028133698]}, "properties": {"totaal_bijplaatsingen": 1491, "aantal_niet_aplus": 1153, "aantal_handhavingen": 129, "adres": "Sint Willibrordusstraat 31", "aantal_grofvuil": 512}}, {"type": "Feature", "geometry": {"type": "Point", "coordinates": [4.85404063212948, 52.36584914139381]}, "properties": {"totaal_bijplaatsingen": 1481, "aantal_niet_aplus": 1160, "aantal_handhavingen": 83, "adres": "Hudsonstraat 45", "aantal_grofvuil": 558}}, {"type": "Feature", "geometry": {"type": "Point", "coordinates": [4.920176926451124, 52.41104687311204]}, "properties": {"totaal_bijplaatsingen": 1478, "aantal_niet_aplus": 1272, "aantal_handhavingen": 73, "adres": "Zeevaarthof 109", "aantal_grofvuil": 774}}, {"type": "Feature", "geometry": {"type": "Point", "coordinates": [4.863745132116621, 52.37182234132322]}, "properties": {"totaal_bijplaatsingen": 1476, "aantal_niet_aplus": 1133, "aantal_handhavingen": 125, "adres": "Willem de Zwijgerlaan 50", "aantal_grofvuil": 530}}, {"type": "Feature", "geometry": {"type": "Point", "coordinates": [4.865625521928264, 52.34789501149288]}, "properties": {"totaal_bijplaatsingen": 1472, "aantal_niet_aplus": 1076, "aantal_handhavingen": 56, "adres": "Olympiaplein 82", "aantal_grofvuil": 328}}, {"type": "Feature", "geometry": {"type": "Point", "coordinates": [4.782219532489571, 52.35750124165293]}, "properties": {"totaal_bijplaatsingen": 1470, "aantal_niet_aplus": 1117, "aantal_handhavingen": 39, "adres": "Hoogheemraadweg 25", "aantal_grofvuil": 546}}, {"type": "Feature", "geometry": {"type": "Point", "coordinates": [4.881616522149364, 52.39036404113809]}, "properties": {"totaal_bijplaatsingen": 1464, "aantal_niet_aplus": 1154, "aantal_handhavingen": 127, "adres": "Nova Zemblastraat 373", "aantal_grofvuil": 707}}, {"type": "Feature", "geometry": {"type": "Point", "coordinates": [4.882347143355705, 52.327351853194216]}, "properties": {"totaal_bijplaatsingen": 1451, "aantal_niet_aplus": 1089, "aantal_handhavingen": 161, "adres": "Van Heenvlietlaan 202", "aantal_grofvuil": 503}}, {"type": "Feature", "geometry": {"type": "Point", "coordinates": [4.914933085554353, 52.34704174401128]}, "properties": {"totaal_bijplaatsingen": 1440, "aantal_niet_aplus": 1272, "aantal_handhavingen": 72, "adres": "Van der Kunstraat 5", "aantal_grofvuil": 632}}, {"type": "Feature", "geometry": {"type": "Point", "coordinates": [4.852160364265615, 52.36480358281317]}, "properties": {"totaal_bijplaatsingen": 1430, "aantal_niet_aplus": 1075, "aantal_handhavingen": 104, "adres": "Van Spilbergenstraat 11", "aantal_grofvuil": 612}}, {"type": "Feature", "geometry": {"type": "Point", "coordinates": [4.836475412206473, 52.36228236146842]}, "properties": {"totaal_bijplaatsingen": 1428, "aantal_niet_aplus": 1143, "aantal_handhavingen": 55, "adres": "Jan Tooropstraat 15A", "aantal_grofvuil": 427}}, {"type": "Feature", "geometry": {"type": "Point", "coordinates": [4.872712864194002, 52.37629548253136]}, "properties": {"totaal_bijplaatsingen": 1418, "aantal_niet_aplus": 1130, "aantal_handhavingen": 105, "adres": "Eerste Hugo de Grootstraat 35", "aantal_grofvuil": 795}}, {"type": "Feature", "geometry": {"type": "Point", "coordinates": [4.9486121644161365, 52.32477145318549]}, "properties": {"totaal_bijplaatsingen": 1417, "aantal_niet_aplus": 1118, "aantal_handhavingen": 78, "adres": "Dani\u00ebl Defoelaan 164", "aantal_grofvuil": 685}}, {"type": "Feature", "geometry": {"type": "Point", "coordinates": [4.828962746587119, 52.34829519447064]}, "properties": {"totaal_bijplaatsingen": 1416, "aantal_niet_aplus": 1185, "aantal_handhavingen": 133, "adres": "Helena Mercierstraat 2", "aantal_grofvuil": 609}}, {"type": "Feature", "geometry": {"type": "Point", "coordinates": [4.9297659251097325, 52.40109992105416]}, "properties": {"totaal_bijplaatsingen": 1415, "aantal_niet_aplus": 1017, "aantal_handhavingen": 100, "adres": "Elzenhagensingel 857", "aantal_grofvuil": 587}}, {"type": "Feature", "geometry": {"type": "Point", "coordinates": [4.941546761270049, 52.319759941489394]}, "properties": {"totaal_bijplaatsingen": 1412, "aantal_niet_aplus": 820, "aantal_handhavingen": 44, "adres": "Boris Pasternakstraat 115", "aantal_grofvuil": 256}}, {"type": "Feature", "geometry": {"type": "Point", "coordinates": [4.862121266389675, 52.36127439411124]}, "properties": {"totaal_bijplaatsingen": 1408, "aantal_niet_aplus": 1060, "aantal_handhavingen": 133, "adres": "Wilhelminastraat 121", "aantal_grofvuil": 610}}, {"type": "Feature", "geometry": {"type": "Point", "coordinates": [4.989502013901417, 52.29542530430386]}, "properties": {"totaal_bijplaatsingen": 1408, "aantal_niet_aplus": 1048, "aantal_handhavingen": 76, "adres": "Wethouder De Roosplein 47", "aantal_grofvuil": 637}}, {"type": "Feature", "geometry": {"type": "Point", "coordinates": [4.869366002044999, 52.366640691345474]}, "properties": {"totaal_bijplaatsingen": 1407, "aantal_niet_aplus": 1176, "aantal_handhavingen": 159, "adres": "Kinkerstraat 136", "aantal_grofvuil": 687}}, {"type": "Feature", "geometry": {"type": "Point", "coordinates": [4.791335067201451, 52.360009184520266]}, "properties": {"totaal_bijplaatsingen": 1397, "aantal_niet_aplus": 1082, "aantal_handhavingen": 83, "adres": "Osdorper Ban 953", "aantal_grofvuil": 607}}, {"type": "Feature", "geometry": {"type": "Point", "coordinates": [4.9306939319497545, 52.40242444091261]}, "properties": {"totaal_bijplaatsingen": 1393, "aantal_niet_aplus": 1003, "aantal_handhavingen": 161, "adres": "Elzenhagensingel 373", "aantal_grofvuil": 602}}, {"type": "Feature", "geometry": {"type": "Point", "coordinates": [4.874023114152008, 52.37451183255009]}, "properties": {"totaal_bijplaatsingen": 1381, "aantal_niet_aplus": 986, "aantal_handhavingen": 75, "adres": "Van Oldenbarneveldtstraat 80", "aantal_grofvuil": 481}}, {"type": "Feature", "geometry": {"type": "Point", "coordinates": [4.919082631865004, 52.3819330410952]}, "properties": {"totaal_bijplaatsingen": 1374, "aantal_niet_aplus": 1081, "aantal_handhavingen": 79, "adres": "Motorwal 10", "aantal_grofvuil": 591}}, {"type": "Feature", "geometry": {"type": "Point", "coordinates": [4.91190959344829, 52.357314022591225]}, "properties": {"totaal_bijplaatsingen": 1373, "aantal_niet_aplus": 1094, "aantal_handhavingen": 121, "adres": "Blasiusstraat 93", "aantal_grofvuil": 638}}, {"type": "Feature", "geometry": {"type": "Point", "coordinates": [4.986791990823811, 52.2959112015403]}, "properties": {"totaal_bijplaatsingen": 1369, "aantal_niet_aplus": 963, "aantal_handhavingen": 61, "adres": "Wisseloord 83", "aantal_grofvuil": 467}}, {"type": "Feature", "geometry": {"type": "Point", "coordinates": [4.915963621687651, 52.355636341296645]}, "properties": {"totaal_bijplaatsingen": 1360, "aantal_niet_aplus": 1084, "aantal_handhavingen": 142, "adres": "Vrolikstraat 247C", "aantal_grofvuil": 527}}, {"type": "Feature", "geometry": {"type": "Point", "coordinates": [4.800312522522151, 52.37625174146676]}, "properties": {"totaal_bijplaatsingen": 1357, "aantal_niet_aplus": 1079, "aantal_handhavingen": 46, "adres": "Nolensstraat 23", "aantal_grofvuil": 479}}, {"type": "Feature", "geometry": {"type": "Point", "coordinates": [4.903444631877251, 52.37116274121768]}, "properties": {"totaal_bijplaatsingen": 1357, "aantal_niet_aplus": 864, "aantal_handhavingen": 248, "adres": "Oudeschans 46C", "aantal_grofvuil": 288}}, {"type": "Feature", "geometry": {"type": "Point", "coordinates": [4.893530131936161, 52.37119904124499]}, "properties": {"totaal_bijplaatsingen": 1355, "aantal_niet_aplus": 481, "aantal_handhavingen": 55, "adres": "Nes 47", "aantal_grofvuil": 82}}, {"type": "Feature", "geometry": {"type": "Point", "coordinates": [4.896286831898832, 52.368372041258006]}, "properties": {"totaal_bijplaatsingen": 1354, "aantal_niet_aplus": 888, "aantal_handhavingen": 158, "adres": "Aluminiumbrug Aluminiumbrug (Brug 222)", "aantal_grofvuil": 285}}, {"type": "Feature", "geometry": {"type": "Point", "coordinates": [4.83132083237343, 52.380714641348426]}, "properties": {"totaal_bijplaatsingen": 1349, "aantal_niet_aplus": 1108, "aantal_handhavingen": 69, "adres": "De Tourton Bruynsstraat 3", "aantal_grofvuil": 590}}, {"type": "Feature", "geometry": {"type": "Point", "coordinates": [4.806569452512375, 52.379876831423104]}, "properties": {"totaal_bijplaatsingen": 1344, "aantal_niet_aplus": 1147, "aantal_handhavingen": 129, "adres": "Dr. H. Colijnstraat 176", "aantal_grofvuil": 517}}, {"type": "Feature", "geometry": {"type": "Point", "coordinates": [4.853508642022284, 52.35094131150411]}, "properties": {"totaal_bijplaatsingen": 1335, "aantal_niet_aplus": 1082, "aantal_handhavingen": 107, "adres": "Zeilstraat 54", "aantal_grofvuil": 574}}, {"type": "Feature", "geometry": {"type": "Point", "coordinates": [4.924225165834357, 52.37318954360358]}, "properties": {"totaal_bijplaatsingen": 1334, "aantal_niet_aplus": 803, "aantal_handhavingen": 21, "adres": "Windroosplein 61", "aantal_grofvuil": 455}}, {"type": "Feature", "geometry": {"type": "Point", "coordinates": [4.83153056449426, 52.36384678294142]}, "properties": {"totaal_bijplaatsingen": 1332, "aantal_niet_aplus": 1049, "aantal_handhavingen": 74, "adres": "Robert Fruinlaan 8", "aantal_grofvuil": 495}}, {"type": "Feature", "geometry": {"type": "Point", "coordinates": [4.842773632304441, 52.38048534131824]}, "properties": {"totaal_bijplaatsingen": 1319, "aantal_niet_aplus": 1080, "aantal_handhavingen": 42, "adres": "De Schaapherderstraat 19", "aantal_grofvuil": 516}}, {"type": "Feature", "geometry": {"type": "Point", "coordinates": [4.831379212231237, 52.36157804148768]}, "properties": {"totaal_bijplaatsingen": 1319, "aantal_niet_aplus": 1064, "aantal_handhavingen": 48, "adres": "Jacob Geelstraat 25", "aantal_grofvuil": 397}}, {"type": "Feature", "geometry": {"type": "Point", "coordinates": [4.916089351691267, 52.356223901291976]}, "properties": {"totaal_bijplaatsingen": 1312, "aantal_niet_aplus": 1061, "aantal_handhavingen": 121, "adres": "Derde Oosterparkstraat 64", "aantal_grofvuil": 590}}, {"type": "Feature", "geometry": {"type": "Point", "coordinates": [4.914622242087828, 52.40815368091575]}, "properties": {"totaal_bijplaatsingen": 1297, "aantal_niet_aplus": 1141, "aantal_handhavingen": 85, "adres": "Bezaanjachtplein 20", "aantal_grofvuil": 647}}, {"type": "Feature", "geometry": {"type": "Point", "coordinates": [4.918339966107898, 52.38679894345147]}, "properties": {"totaal_bijplaatsingen": 1295, "aantal_niet_aplus": 1076, "aantal_handhavingen": 76, "adres": "Zwanenplein 19", "aantal_grofvuil": 604}}, {"type": "Feature", "geometry": {"type": "Point", "coordinates": [4.917611562063576, 52.40727644091382]}, "properties": {"totaal_bijplaatsingen": 1294, "aantal_niet_aplus": 1067, "aantal_handhavingen": 34, "adres": "Banneplein 51", "aantal_grofvuil": 666}}, {"type": "Feature", "geometry": {"type": "Point", "coordinates": [4.925612523821003, 52.35583415243908]}, "properties": {"totaal_bijplaatsingen": 1293, "aantal_niet_aplus": 1027, "aantal_handhavingen": 112, "adres": "Pretoriusstraat 33", "aantal_grofvuil": 415}}, {"type": "Feature", "geometry": {"type": "Point", "coordinates": [4.914075116442876, 52.4057277632185]}, "properties": {"totaal_bijplaatsingen": 1292, "aantal_niet_aplus": 1084, "aantal_handhavingen": 45, "adres": "Dekschuitstraat 101", "aantal_grofvuil": 671}}, {"type": "Feature", "geometry": {"type": "Point", "coordinates": [4.82056521245124, 52.38269246136388]}, "properties": {"totaal_bijplaatsingen": 1288, "aantal_niet_aplus": 1157, "aantal_handhavingen": 58, "adres": "Nieuwenhuysenstraat 31", "aantal_grofvuil": 767}}, {"type": "Feature", "geometry": {"type": "Point", "coordinates": [4.945597931578991, 52.36468584114772]}, "properties": {"totaal_bijplaatsingen": 1282, "aantal_niet_aplus": 1019, "aantal_handhavingen": 77, "adres": "Niasstraat 64", "aantal_grofvuil": 424}}, {"type": "Feature", "geometry": {"type": "Point", "coordinates": [4.892900115967107, 52.38452503261888]}, "properties": {"totaal_bijplaatsingen": 1282, "aantal_niet_aplus": 735, "aantal_handhavingen": 34, "adres": "Westerdoksdijk 215", "aantal_grofvuil": 387}}, {"type": "Feature", "geometry": {"type": "Point", "coordinates": [4.918301975670502, 52.35752435384978]}, "properties": {"totaal_bijplaatsingen": 1280, "aantal_niet_aplus": 1032, "aantal_handhavingen": 98, "adres": "Tweede Oosterparkstraat 135", "aantal_grofvuil": 469}}, {"type": "Feature", "geometry": {"type": "Point", "coordinates": [4.847745046391863, 52.3500215343434]}, "properties": {"totaal_bijplaatsingen": 1265, "aantal_niet_aplus": 950, "aantal_handhavingen": 97, "adres": "Woestduinstraat 143", "aantal_grofvuil": 457}}, {"type": "Feature", "geometry": {"type": "Point", "coordinates": [4.871847616284984, 52.36193829404824]}, "properties": {"totaal_bijplaatsingen": 1265, "aantal_niet_aplus": 906, "aantal_handhavingen": 142, "adres": "Overtoom 200", "aantal_grofvuil": 334}}, {"type": "Feature", "geometry": {"type": "Point", "coordinates": [4.923764631739642, 52.36884824117802]}, "properties": {"totaal_bijplaatsingen": 1256, "aantal_niet_aplus": 761, "aantal_handhavingen": 41, "adres": "Compagniestraat 14", "aantal_grofvuil": 381}}, {"type": "Feature", "geometry": {"type": "Point", "coordinates": [4.908402231665155, 52.34655354138423]}, "properties": {"totaal_bijplaatsingen": 1250, "aantal_niet_aplus": 1023, "aantal_handhavingen": 118, "adres": "Vrijheidslaan 43", "aantal_grofvuil": 477}}, {"type": "Feature", "geometry": {"type": "Point", "coordinates": [4.841718122309826, 52.38037518132205]}, "properties": {"totaal_bijplaatsingen": 1249, "aantal_niet_aplus": 933, "aantal_handhavingen": 43, "adres": "Akbarstraat 50", "aantal_grofvuil": 438}}, {"type": "Feature", "geometry": {"type": "Point", "coordinates": [4.813350167159472, 52.37454074420255]}, "properties": {"totaal_bijplaatsingen": 1248, "aantal_niet_aplus": 995, "aantal_handhavingen": 51, "adres": "Socratesstraat 26", "aantal_grofvuil": 573}}, {"type": "Feature", "geometry": {"type": "Point", "coordinates": [4.839108066630787, 52.35928549426575]}, "properties": {"totaal_bijplaatsingen": 1247, "aantal_niet_aplus": 978, "aantal_handhavingen": 61, "adres": "Johan Jongkindstraat 5", "aantal_grofvuil": 387}}, {"type": "Feature", "geometry": {"type": "Point", "coordinates": [4.949011011206581, 52.31719157148772]}, "properties": {"totaal_bijplaatsingen": 1247, "aantal_niet_aplus": 719, "aantal_handhavingen": 102, "adres": "Anna Blamansingel 230", "aantal_grofvuil": 340}}, {"type": "Feature", "geometry": {"type": "Point", "coordinates": [4.955003631727537, 52.39202174092066]}, "properties": {"totaal_bijplaatsingen": 1247, "aantal_niet_aplus": 969, "aantal_handhavingen": 83, "adres": "Waterlandplein 271", "aantal_grofvuil": 511}}, {"type": "Feature", "geometry": {"type": "Point", "coordinates": [4.86355834192525, 52.345833601513625]}, "properties": {"totaal_bijplaatsingen": 1245, "aantal_niet_aplus": 977, "aantal_handhavingen": 83, "adres": "Stadionweg 175", "aantal_grofvuil": 536}}, {"type": "Feature", "geometry": {"type": "Point", "coordinates": [4.909661405771948, 52.3574687638986]}, "properties": {"totaal_bijplaatsingen": 1237, "aantal_niet_aplus": 963, "aantal_handhavingen": 88, "adres": "Ruyschstraat 45", "aantal_grofvuil": 448}}, {"type": "Feature", "geometry": {"type": "Point", "coordinates": [4.952855671142983, 52.311676281517705]}, "properties": {"totaal_bijplaatsingen": 1235, "aantal_niet_aplus": 869, "aantal_handhavingen": 92, "adres": "Haardstee 79", "aantal_grofvuil": 598}}, {"type": "Feature", "geometry": {"type": "Point", "coordinates": [4.92292763057395, 52.37196398872203]}, "properties": {"totaal_bijplaatsingen": 1233, "aantal_niet_aplus": 783, "aantal_handhavingen": 75, "adres": "Kleine Wittenburgerstraat 319", "aantal_grofvuil": 442}}, {"type": "Feature", "geometry": {"type": "Point", "coordinates": [4.913357831991411, 52.39430414102062]}, "properties": {"totaal_bijplaatsingen": 1232, "aantal_niet_aplus": 1049, "aantal_handhavingen": 56, "adres": "Heggerankweg 2", "aantal_grofvuil": 494}}, {"type": "Feature", "geometry": {"type": "Point", "coordinates": [4.90132953187922, 52.36974584123395]}, "properties": {"totaal_bijplaatsingen": 1225, "aantal_niet_aplus": 847, "aantal_handhavingen": 202, "adres": "Sint Antoniebreestraat 77", "aantal_grofvuil": 221}}, {"type": "Feature", "geometry": {"type": "Point", "coordinates": [4.959360761156274, 52.31874910144751]}, "properties": {"totaal_bijplaatsingen": 1224, "aantal_niet_aplus": 734, "aantal_handhavingen": 49, "adres": "Sean MacBridestraat 1", "aantal_grofvuil": 294}}, {"type": "Feature", "geometry": {"type": "Point", "coordinates": [4.956627974504037, 52.309621414291016]}, "properties": {"totaal_bijplaatsingen": 1218, "aantal_niet_aplus": 602, "aantal_handhavingen": 41, "adres": "Hogevecht 91", "aantal_grofvuil": 276}}, {"type": "Feature", "geometry": {"type": "Point", "coordinates": [4.9219147657009525, 52.38965248238122]}, "properties": {"totaal_bijplaatsingen": 1216, "aantal_niet_aplus": 900, "aantal_handhavingen": 56, "adres": "Adelaarsweg 120", "aantal_grofvuil": 444}}, {"type": "Feature", "geometry": {"type": "Point", "coordinates": [4.915027666107546, 52.38416674350578]}, "properties": {"totaal_bijplaatsingen": 1214, "aantal_niet_aplus": 946, "aantal_handhavingen": 49, "adres": "Spreeuwenpark 38", "aantal_grofvuil": 370}}, {"type": "Feature", "geometry": {"type": "Point", "coordinates": [4.869836276493146, 52.37431917389156]}, "properties": {"totaal_bijplaatsingen": 1214, "aantal_niet_aplus": 615, "aantal_handhavingen": 60, "adres": "Van Reigersbergenstraat 252", "aantal_grofvuil": 333}}, {"type": "Feature", "geometry": {"type": "Point", "coordinates": [4.871459595482141, 52.33488576346466]}, "properties": {"totaal_bijplaatsingen": 1207, "aantal_niet_aplus": 886, "aantal_handhavingen": 169, "adres": "De Boelelaan 1017", "aantal_grofvuil": 406}}, {"type": "Feature", "geometry": {"type": "Point", "coordinates": [4.988799960826255, 52.29788127152024]}, "properties": {"totaal_bijplaatsingen": 1207, "aantal_niet_aplus": 791, "aantal_handhavingen": 68, "adres": "Wilnisgracht 11", "aantal_grofvuil": 477}}, {"type": "Feature", "geometry": {"type": "Point", "coordinates": [4.8496251664770655, 52.35725851423496]}, "properties": {"totaal_bijplaatsingen": 1204, "aantal_niet_aplus": 1006, "aantal_handhavingen": 117, "adres": "Andreas Schelfhoutstraat 65", "aantal_grofvuil": 557}}, {"type": "Feature", "geometry": {"type": "Point", "coordinates": [4.890386631827419, 52.35404974137928]}, "properties": {"totaal_bijplaatsingen": 1203, "aantal_niet_aplus": 959, "aantal_handhavingen": 61, "adres": "Eerste Jan Steenstraat 85", "aantal_grofvuil": 340}}, {"type": "Feature", "geometry": {"type": "Point", "coordinates": [4.912429331926466, 52.38488854109213]}, "properties": {"totaal_bijplaatsingen": 1202, "aantal_niet_aplus": 869, "aantal_handhavingen": 66, "adres": "Reigerweg 1", "aantal_grofvuil": 495}}, {"type": "Feature", "geometry": {"type": "Point", "coordinates": [4.849952566526103, 52.36081984418495]}, "properties": {"totaal_bijplaatsingen": 1201, "aantal_niet_aplus": 852, "aantal_handhavingen": 143, "adres": "Postjeskade 171", "aantal_grofvuil": 464}}, {"type": "Feature", "geometry": {"type": "Point", "coordinates": [4.978234564100799, 52.299795244306125]}, "properties": {"totaal_bijplaatsingen": 1201, "aantal_niet_aplus": 771, "aantal_handhavingen": 66, "adres": "Polsbroekstraat 36", "aantal_grofvuil": 435}}, {"type": "Feature", "geometry": {"type": "Point", "coordinates": [4.830243972152834, 52.350058801574775]}, "properties": {"totaal_bijplaatsingen": 1192, "aantal_niet_aplus": 979, "aantal_handhavingen": 100, "adres": "Elisabeth Boddaertstraat 20", "aantal_grofvuil": 440}}, {"type": "Feature", "geometry": {"type": "Point", "coordinates": [4.90622563189738, 52.376073541174]}, "properties": {"totaal_bijplaatsingen": 1189, "aantal_niet_aplus": 618, "aantal_handhavingen": 8, "adres": "Oosterdokskade 29", "aantal_grofvuil": 81}}, {"type": "Feature", "geometry": {"type": "Point", "coordinates": [4.9699556918035865, 52.29278727321977]}, "properties": {"totaal_bijplaatsingen": 1188, "aantal_niet_aplus": 754, "aantal_handhavingen": 108, "adres": "Toutenburgstraat & Tegelarijpad", "aantal_grofvuil": 509}}, {"type": "Feature", "geometry": {"type": "Point", "coordinates": [4.965134265291328, 52.36932526342736]}, "properties": {"totaal_bijplaatsingen": 1187, "aantal_niet_aplus": 1015, "aantal_handhavingen": 108, "adres": "Zuiderzeeweg 18", "aantal_grofvuil": 734}}, {"type": "Feature", "geometry": {"type": "Point", "coordinates": [4.930025411660126, 52.36315885120231]}, "properties": {"totaal_bijplaatsingen": 1187, "aantal_niet_aplus": 967, "aantal_handhavingen": 110, "adres": "Eerste Van Swindenstraat 132", "aantal_grofvuil": 343}}, {"type": "Feature", "geometry": {"type": "Point", "coordinates": [4.911058592079903, 52.404295170954015]}, "properties": {"totaal_bijplaatsingen": 1186, "aantal_niet_aplus": 1030, "aantal_handhavingen": 66, "adres": "Klipperstraat 1", "aantal_grofvuil": 630}}, {"type": "Feature", "geometry": {"type": "Point", "coordinates": [4.927709338110947, 52.33644521650192]}, "properties": {"totaal_bijplaatsingen": 1184, "aantal_niet_aplus": 1064, "aantal_handhavingen": 66, "adres": "H.J.E. Wenckebachweg 6", "aantal_grofvuil": 596}}, {"type": "Feature", "geometry": {"type": "Point", "coordinates": [4.998221941189489, 52.35452619107559]}, "properties": {"totaal_bijplaatsingen": 1177, "aantal_niet_aplus": 956, "aantal_handhavingen": 91, "adres": "Kiekstraat 22", "aantal_grofvuil": 479}}, {"type": "Feature", "geometry": {"type": "Point", "coordinates": [4.888175832216656, 52.40452694101637]}, "properties": {"totaal_bijplaatsingen": 1174, "aantal_niet_aplus": 850, "aantal_handhavingen": 86, "adres": "Kraanspoor 29E", "aantal_grofvuil": 378}}, {"type": "Feature", "geometry": {"type": "Point", "coordinates": [4.8903806667076335, 52.404773943364425]}, "properties": {"totaal_bijplaatsingen": 1172, "aantal_niet_aplus": 852, "aantal_handhavingen": 99, "adres": "mt. Lincolnweg 12", "aantal_grofvuil": 474}}, {"type": "Feature", "geometry": {"type": "Point", "coordinates": [4.903149831768294, 52.35626774132756]}, "properties": {"totaal_bijplaatsingen": 1170, "aantal_niet_aplus": 976, "aantal_handhavingen": 94, "adres": "Tweede Jan van der Heijdenstraat 79", "aantal_grofvuil": 534}}, {"type": "Feature", "geometry": {"type": "Point", "coordinates": [4.971755580891188, 52.29281163160474]}, "properties": {"totaal_bijplaatsingen": 1168, "aantal_niet_aplus": 710, "aantal_handhavingen": 56, "adres": "Tefelenstraat 10", "aantal_grofvuil": 390}}, {"type": "Feature", "geometry": {"type": "Point", "coordinates": [4.945588774763285, 52.318256084234]}, "properties": {"totaal_bijplaatsingen": 1168, "aantal_niet_aplus": 748, "aantal_handhavingen": 53, "adres": "Berthold Brechtstraat 737", "aantal_grofvuil": 430}}, {"type": "Feature", "geometry": {"type": "Point", "coordinates": [4.792051332477541, 52.363676141581]}, "properties": {"totaal_bijplaatsingen": 1167, "aantal_niet_aplus": 942, "aantal_handhavingen": 40, "adres": "Ookmeerweg 248", "aantal_grofvuil": 334}}, {"type": "Feature", "geometry": {"type": "Point", "coordinates": [4.900372936317337, 52.38662182355445]}, "properties": {"totaal_bijplaatsingen": 1167, "aantal_niet_aplus": 783, "aantal_handhavingen": 72, "adres": "Spadinalaan & Overhoeksparklaan", "aantal_grofvuil": 438}}, {"type": "Feature", "geometry": {"type": "Point", "coordinates": [4.910083205924532, 52.36803236375268]}, "properties": {"totaal_bijplaatsingen": 1164, "aantal_niet_aplus": 630, "aantal_handhavingen": 45, "adres": "Plantage Parklaan 20", "aantal_grofvuil": 166}}, {"type": "Feature", "geometry": {"type": "Point", "coordinates": [4.86132192195184, 52.34764613150657]}, "properties": {"totaal_bijplaatsingen": 1161, "aantal_niet_aplus": 848, "aantal_handhavingen": 47, "adres": "Olympiaweg 62", "aantal_grofvuil": 434}}, {"type": "Feature", "geometry": {"type": "Point", "coordinates": [4.894900431740986, 52.34598544142583]}, "properties": {"totaal_bijplaatsingen": 1161, "aantal_niet_aplus": 831, "aantal_handhavingen": 98, "adres": "Maasstraat 34", "aantal_grofvuil": 319}}, {"type": "Feature", "geometry": {"type": "Point", "coordinates": [4.89131873184217, 52.35678404135668]}, "properties": {"totaal_bijplaatsingen": 1161, "aantal_niet_aplus": 973, "aantal_handhavingen": 62, "adres": "Quellijnstraat 86", "aantal_grofvuil": 446}}, {"type": "Feature", "geometry": {"type": "Point", "coordinates": [4.847836666885704, 52.38329584389268]}, "properties": {"totaal_bijplaatsingen": 1158, "aantal_niet_aplus": 929, "aantal_handhavingen": 65, "adres": "Sara Burgerhartstraat 62", "aantal_grofvuil": 569}}, {"type": "Feature", "geometry": {"type": "Point", "coordinates": [4.842626132319211, 52.38235564130505]}, "properties": {"totaal_bijplaatsingen": 1158, "aantal_niet_aplus": 947, "aantal_handhavingen": 30, "adres": "Ferdinand Huyckstraat 11", "aantal_grofvuil": 427}}, {"type": "Feature", "geometry": {"type": "Point", "coordinates": [4.878771332070902, 52.37759074123935]}, "properties": {"totaal_bijplaatsingen": 1153, "aantal_niet_aplus": 605, "aantal_handhavingen": 33, "adres": "Sint jacobsstraat 2-22", "aantal_grofvuil": 238}}, {"type": "Feature", "geometry": {"type": "Point", "coordinates": [4.91581203210713, 52.41165614088683]}, "properties": {"totaal_bijplaatsingen": 1150, "aantal_niet_aplus": 949, "aantal_handhavingen": 46, "adres": "Voordek 41", "aantal_grofvuil": 458}}, {"type": "Feature", "geometry": {"type": "Point", "coordinates": [4.988526363992476, 52.30080040423536]}, "properties": {"totaal_bijplaatsingen": 1140, "aantal_niet_aplus": 663, "aantal_handhavingen": 49, "adres": "Wamelstraat 114", "aantal_grofvuil": 364}}, {"type": "Feature", "geometry": {"type": "Point", "coordinates": [4.868488531886224, 52.34449284150983]}, "properties": {"totaal_bijplaatsingen": 1140, "aantal_niet_aplus": 789, "aantal_handhavingen": 84, "adres": "Stadionkade 69", "aantal_grofvuil": 409}}, {"type": "Feature", "geometry": {"type": "Point", "coordinates": [4.901905631662641, 52.34100614144296]}, "properties": {"totaal_bijplaatsingen": 1139, "aantal_niet_aplus": 886, "aantal_handhavingen": 124, "adres": "Waalstraat 165", "aantal_grofvuil": 511}}, {"type": "Feature", "geometry": {"type": "Point", "coordinates": [4.956153431744934, 52.39524814089373]}, "properties": {"totaal_bijplaatsingen": 1138, "aantal_niet_aplus": 846, "aantal_handhavingen": 52, "adres": "Wieringerwaardstraat 313", "aantal_grofvuil": 433}}, {"type": "Feature", "geometry": {"type": "Point", "coordinates": [4.856934932149842, 52.37089234134896]}, "properties": {"totaal_bijplaatsingen": 1136, "aantal_niet_aplus": 775, "aantal_handhavingen": 67, "adres": "Admiralengracht 176", "aantal_grofvuil": 359}}, {"type": "Feature", "geometry": {"type": "Point", "coordinates": [4.85092643226733, 52.38194184128502]}, "properties": {"totaal_bijplaatsingen": 1135, "aantal_niet_aplus": 903, "aantal_handhavingen": 71, "adres": "Wiltzanghlaan 7", "aantal_grofvuil": 443}}, {"type": "Feature", "geometry": {"type": "Point", "coordinates": [4.911613812093071, 52.40648592093636]}, "properties": {"totaal_bijplaatsingen": 1132, "aantal_niet_aplus": 900, "aantal_handhavingen": 64, "adres": "Botterstraat 186", "aantal_grofvuil": 410}}, {"type": "Feature", "geometry": {"type": "Point", "coordinates": [4.865676796026501, 52.3669829230272]}, "properties": {"totaal_bijplaatsingen": 1132, "aantal_niet_aplus": 953, "aantal_handhavingen": 134, "adres": "Bellamystraat 35", "aantal_grofvuil": 538}}, {"type": "Feature", "geometry": {"type": "Point", "coordinates": [4.941287074884997, 52.32301910419271]}, "properties": {"totaal_bijplaatsingen": 1131, "aantal_niet_aplus": 650, "aantal_handhavingen": 41, "adres": "Alexander Dumaslaan 206", "aantal_grofvuil": 313}}, {"type": "Feature", "geometry": {"type": "Point", "coordinates": [4.944067734816957, 52.32065887420957]}, "properties": {"totaal_bijplaatsingen": 1131, "aantal_niet_aplus": 719, "aantal_handhavingen": 38, "adres": "Barbusselaan 130", "aantal_grofvuil": 435}}, {"type": "Feature", "geometry": {"type": "Point", "coordinates": [4.990510931276831, 52.360055251056366]}, "properties": {"totaal_bijplaatsingen": 1131, "aantal_niet_aplus": 902, "aantal_handhavingen": 132, "adres": "Piet Zwarthof 1", "aantal_grofvuil": 519}}, {"type": "Feature", "geometry": {"type": "Point", "coordinates": [4.846444532246228, 52.37555614134403]}, "properties": {"totaal_bijplaatsingen": 1122, "aantal_niet_aplus": 997, "aantal_handhavingen": 84, "adres": "Bos en Lommerplantsoen 12", "aantal_grofvuil": 694}}, {"type": "Feature", "geometry": {"type": "Point", "coordinates": [4.926578131680124, 52.36309674121237]}, "properties": {"totaal_bijplaatsingen": 1121, "aantal_niet_aplus": 903, "aantal_handhavingen": 64, "adres": "Wagenaarstraat 232", "aantal_grofvuil": 404}}, {"type": "Feature", "geometry": {"type": "Point", "coordinates": [4.9210137317748375, 52.37138284116712]}, "properties": {"totaal_bijplaatsingen": 1117, "aantal_niet_aplus": 756, "aantal_handhavingen": 42, "adres": "Grote Wittenburgerstraat 55", "aantal_grofvuil": 404}}, {"type": "Feature", "geometry": {"type": "Point", "coordinates": [4.860705811981823, 52.3512116414822]}, "properties": {"totaal_bijplaatsingen": 1117, "aantal_niet_aplus": 824, "aantal_handhavingen": 89, "adres": "Hendrik Jacobszstraat 17", "aantal_grofvuil": 326}}, {"type": "Feature", "geometry": {"type": "Point", "coordinates": [4.884433482044132, 52.37848354121704]}, "properties": {"totaal_bijplaatsingen": 1115, "aantal_niet_aplus": 961, "aantal_handhavingen": 417, "adres": "Westerstraat 79", "aantal_grofvuil": 277}}, {"type": "Feature", "geometry": {"type": "Point", "coordinates": [4.970166074505141, 52.32060840406544]}, "properties": {"totaal_bijplaatsingen": 1112, "aantal_niet_aplus": 592, "aantal_handhavingen": 39, "adres": "Gooioord 4", "aantal_grofvuil": 227}}, {"type": "Feature", "geometry": {"type": "Point", "coordinates": [4.876446786556387, 52.38376005372692]}, "properties": {"totaal_bijplaatsingen": 1108, "aantal_niet_aplus": 839, "aantal_handhavingen": 88, "adres": "Van Beuningenstraat 56", "aantal_grofvuil": 443}}, {"type": "Feature", "geometry": {"type": "Point", "coordinates": [4.914806572806147, 52.40410364603069]}, "properties": {"totaal_bijplaatsingen": 1107, "aantal_niet_aplus": 853, "aantal_handhavingen": 49, "adres": "Koopvaardersplantsoen 55", "aantal_grofvuil": 543}}, {"type": "Feature", "geometry": {"type": "Point", "coordinates": [4.965218701533827, 52.374268921022455]}, "properties": {"totaal_bijplaatsingen": 1105, "aantal_niet_aplus": 885, "aantal_handhavingen": 75, "adres": "Rie Mastenbroekstraat 19", "aantal_grofvuil": 522}}, {"type": "Feature", "geometry": {"type": "Point", "coordinates": [4.8551349441071565, 52.35647133291845]}, "properties": {"totaal_bijplaatsingen": 1105, "aantal_niet_aplus": 874, "aantal_handhavingen": 104, "adres": "Zocherstraat 70", "aantal_grofvuil": 502}}, {"type": "Feature", "geometry": {"type": "Point", "coordinates": [4.879994731981476, 52.36653534131678]}, "properties": {"totaal_bijplaatsingen": 1099, "aantal_niet_aplus": 961, "aantal_handhavingen": 435, "adres": "Raamplein 1", "aantal_grofvuil": 515}}, {"type": "Feature", "geometry": {"type": "Point", "coordinates": [4.927786454441314, 52.37187388320857]}, "properties": {"totaal_bijplaatsingen": 1097, "aantal_niet_aplus": 676, "aantal_handhavingen": 131, "adres": "Oostenburgermiddenstraat 208", "aantal_grofvuil": 382}}, {"type": "Feature", "geometry": {"type": "Point", "coordinates": [4.925798395578775, 52.35732815381065]}, "properties": {"totaal_bijplaatsingen": 1094, "aantal_niet_aplus": 830, "aantal_handhavingen": 94, "adres": "Tugelaweg 16", "aantal_grofvuil": 452}}, {"type": "Feature", "geometry": {"type": "Point", "coordinates": [4.946151704454814, 52.32540180318993]}, "properties": {"totaal_bijplaatsingen": 1090, "aantal_niet_aplus": 731, "aantal_handhavingen": 40, "adres": "Chestertonlaan 68", "aantal_grofvuil": 510}}, {"type": "Feature", "geometry": {"type": "Point", "coordinates": [4.964631240995473, 52.30119842156248]}, "properties": {"totaal_bijplaatsingen": 1086, "aantal_niet_aplus": 772, "aantal_handhavingen": 85, "adres": "Maasdrielhof 143", "aantal_grofvuil": 454}}, {"type": "Feature", "geometry": {"type": "Point", "coordinates": [4.878781532070343, 52.37752384123975]}, "properties": {"totaal_bijplaatsingen": 1085, "aantal_niet_aplus": 880, "aantal_handhavingen": 247, "adres": "Rozengracht 3", "aantal_grofvuil": 480}}, {"type": "Feature", "geometry": {"type": "Point", "coordinates": [4.850787812017752, 52.34815438153197]}, "properties": {"totaal_bijplaatsingen": 1082, "aantal_niet_aplus": 783, "aantal_handhavingen": 43, "adres": "Rijnsburgstraat 18", "aantal_grofvuil": 335}}, {"type": "Feature", "geometry": {"type": "Point", "coordinates": [4.919470232108416, 52.41469924085427]}, "properties": {"totaal_bijplaatsingen": 1078, "aantal_niet_aplus": 866, "aantal_handhavingen": 30, "adres": "Achtersteven 41", "aantal_grofvuil": 481}}, {"type": "Feature", "geometry": {"type": "Point", "coordinates": [4.865359232061588, 52.36569114136351]}, "properties": {"totaal_bijplaatsingen": 1078, "aantal_niet_aplus": 845, "aantal_handhavingen": 108, "adres": "Kinkerstraat 244", "aantal_grofvuil": 373}}, {"type": "Feature", "geometry": {"type": "Point", "coordinates": [4.906101545630177, 52.34510617408665]}, "properties": {"totaal_bijplaatsingen": 1075, "aantal_niet_aplus": 843, "aantal_handhavingen": 39, "adres": "Lekstraat 56", "aantal_grofvuil": 344}}, {"type": "Feature", "geometry": {"type": "Point", "coordinates": [4.9208181654543806, 52.34500864400624]}, "properties": {"totaal_bijplaatsingen": 1066, "aantal_niet_aplus": 768, "aantal_handhavingen": 43, "adres": "Rosendaalstraat 8", "aantal_grofvuil": 515}}, {"type": "Feature", "geometry": {"type": "Point", "coordinates": [4.921901017942449, 52.40930823072397]}, "properties": {"totaal_bijplaatsingen": 1059, "aantal_niet_aplus": 862, "aantal_handhavingen": 49, "adres": "Grootzeil 161", "aantal_grofvuil": 518}}, {"type": "Feature", "geometry": {"type": "Point", "coordinates": [4.834836332219343, 52.36271854146978]}, "properties": {"totaal_bijplaatsingen": 1058, "aantal_niet_aplus": 875, "aantal_handhavingen": 77, "adres": "Marius Bauerstraat 401A", "aantal_grofvuil": 467}}, {"type": "Feature", "geometry": {"type": "Point", "coordinates": [4.889834601778265, 52.34696910143267]}, "properties": {"totaal_bijplaatsingen": 1057, "aantal_niet_aplus": 698, "aantal_handhavingen": 88, "adres": "Churchill-laan 177", "aantal_grofvuil": 258}}, {"type": "Feature", "geometry": {"type": "Point", "coordinates": [4.939553787030076, 52.35986075129448]}, "properties": {"totaal_bijplaatsingen": 1055, "aantal_niet_aplus": 873, "aantal_handhavingen": 45, "adres": "Halmaheirastraat 28", "aantal_grofvuil": 493}}, {"type": "Feature", "geometry": {"type": "Point", "coordinates": [4.929546331773143, 52.37793572109526]}, "properties": {"totaal_bijplaatsingen": 1046, "aantal_niet_aplus": 889, "aantal_handhavingen": 5, "adres": "Javakade 204", "aantal_grofvuil": 61}}, {"type": "Feature", "geometry": {"type": "Point", "coordinates": [4.891079765824235, 52.34620799415501]}, "properties": {"totaal_bijplaatsingen": 1043, "aantal_niet_aplus": 794, "aantal_handhavingen": 98, "adres": "Scheldestraat 41", "aantal_grofvuil": 276}}, {"type": "Feature", "geometry": {"type": "Point", "coordinates": [4.9234794318855695, 52.38816564103721]}, "properties": {"totaal_bijplaatsingen": 1040, "aantal_niet_aplus": 743, "aantal_handhavingen": 63, "adres": "Flamingostraat 1", "aantal_grofvuil": 454}}, {"type": "Feature", "geometry": {"type": "Point", "coordinates": [4.868119476201587, 52.353371184185086]}, "properties": {"totaal_bijplaatsingen": 1030, "aantal_niet_aplus": 785, "aantal_handhavingen": 102, "adres": "Johannes Verhulststraat 168", "aantal_grofvuil": 272}}, {"type": "Feature", "geometry": {"type": "Point", "coordinates": [4.905706031875392, 52.37271024120006]}, "properties": {"totaal_bijplaatsingen": 1030, "aantal_niet_aplus": 649, "aantal_handhavingen": 197, "adres": "Binnenkant 42F", "aantal_grofvuil": 187}}, {"type": "Feature", "geometry": {"type": "Point", "coordinates": [4.93029366164846, 52.36180524121151]}, "properties": {"totaal_bijplaatsingen": 1026, "aantal_niet_aplus": 834, "aantal_handhavingen": 88, "adres": "Reinwardtstraat 113A", "aantal_grofvuil": 492}}, {"type": "Feature", "geometry": {"type": "Point", "coordinates": [4.913536546206964, 52.38961941344007]}, "properties": {"totaal_bijplaatsingen": 1022, "aantal_niet_aplus": 779, "aantal_handhavingen": 37, "adres": "Resedastraat 11", "aantal_grofvuil": 510}}, {"type": "Feature", "geometry": {"type": "Point", "coordinates": [4.9388182216499965, 52.36880714113634]}, "properties": {"totaal_bijplaatsingen": 1020, "aantal_niet_aplus": 835, "aantal_handhavingen": 32, "adres": "Cruquiusweg 31", "aantal_grofvuil": 300}}, {"type": "Feature", "geometry": {"type": "Point", "coordinates": [4.913293808289448, 52.36809954892736]}, "properties": {"totaal_bijplaatsingen": 1013, "aantal_niet_aplus": 471, "aantal_handhavingen": 35, "adres": "Plantage Kerklaan 17", "aantal_grofvuil": 123}}, {"type": "Feature", "geometry": {"type": "Point", "coordinates": [4.9046744316938975, 52.34744984138801]}, "properties": {"totaal_bijplaatsingen": 1012, "aantal_niet_aplus": 774, "aantal_handhavingen": 73, "adres": "Rijnstraat 34", "aantal_grofvuil": 264}}, {"type": "Feature", "geometry": {"type": "Point", "coordinates": [4.876387732190739, 52.39177764114236]}, "properties": {"totaal_bijplaatsingen": 1012, "aantal_niet_aplus": 762, "aantal_handhavingen": 52, "adres": "Hembrugstraat 44", "aantal_grofvuil": 407}}, {"type": "Feature", "geometry": {"type": "Point", "coordinates": [4.784248442454263, 52.35431963167049]}, "properties": {"totaal_bijplaatsingen": 1011, "aantal_niet_aplus": 783, "aantal_handhavingen": 40, "adres": "Akerwateringstraat 171", "aantal_grofvuil": 316}}, {"type": "Feature", "geometry": {"type": "Point", "coordinates": [4.846876796863995, 52.381086743927824]}, "properties": {"totaal_bijplaatsingen": 1010, "aantal_niet_aplus": 830, "aantal_handhavingen": 66, "adres": "Gulden Winckelstraat 29", "aantal_grofvuil": 421}}, {"type": "Feature", "geometry": {"type": "Point", "coordinates": [4.966529844214236, 52.29799855439558]}, "properties": {"totaal_bijplaatsingen": 1009, "aantal_niet_aplus": 784, "aantal_handhavingen": 51, "adres": "Meernhof 80", "aantal_grofvuil": 378}}, {"type": "Feature", "geometry": {"type": "Point", "coordinates": [4.903330141723441, 52.350362311370425]}, "properties": {"totaal_bijplaatsingen": 1004, "aantal_niet_aplus": 869, "aantal_handhavingen": 113, "adres": "Carillonstraat 8", "aantal_grofvuil": 514}}, {"type": "Feature", "geometry": {"type": "Point", "coordinates": [5.010076271092998, 52.35109957106774]}, "properties": {"totaal_bijplaatsingen": 1002, "aantal_niet_aplus": 857, "aantal_handhavingen": 77, "adres": "Marius Meijboomstraat 40", "aantal_grofvuil": 446}}, {"type": "Feature", "geometry": {"type": "Point", "coordinates": [4.954989804359944, 52.29853308445202]}, "properties": {"totaal_bijplaatsingen": 997, "aantal_niet_aplus": 622, "aantal_handhavingen": 82, "adres": "Pietersbergweg 796", "aantal_grofvuil": 282}}, {"type": "Feature", "geometry": {"type": "Point", "coordinates": [4.884401791860505, 52.35373658139813]}, "properties": {"totaal_bijplaatsingen": 997, "aantal_niet_aplus": 796, "aantal_handhavingen": 136, "adres": "Cornelis Anthoniszstraat 37", "aantal_grofvuil": 356}}, {"type": "Feature", "geometry": {"type": "Point", "coordinates": [4.790459432469905, 52.36137814160211]}, "properties": {"totaal_bijplaatsingen": 997, "aantal_niet_aplus": 762, "aantal_handhavingen": 50, "adres": "Saaftingestraat 19", "aantal_grofvuil": 445}}, {"type": "Feature", "geometry": {"type": "Point", "coordinates": [4.928684001687757, 52.36580084118668]}, "properties": {"totaal_bijplaatsingen": 996, "aantal_niet_aplus": 864, "aantal_handhavingen": 79, "adres": "Roomtuintjes 71A", "aantal_grofvuil": 416}}, {"type": "Feature", "geometry": {"type": "Point", "coordinates": [4.954496896354342, 52.30673620886032]}, "properties": {"totaal_bijplaatsingen": 995, "aantal_niet_aplus": 672, "aantal_handhavingen": 79, "adres": "Heesterveld 72", "aantal_grofvuil": 300}}, {"type": "Feature", "geometry": {"type": "Point", "coordinates": [4.9095548319563, 52.38660534108755]}, "properties": {"totaal_bijplaatsingen": 994, "aantal_niet_aplus": 836, "aantal_handhavingen": 51, "adres": "Laanweg 100", "aantal_grofvuil": 458}}, {"type": "Feature", "geometry": {"type": "Point", "coordinates": [4.921929515536799, 52.351433903912536]}, "properties": {"totaal_bijplaatsingen": 994, "aantal_niet_aplus": 705, "aantal_handhavingen": 51, "adres": "Stephensonstraat 1", "aantal_grofvuil": 310}}, {"type": "Feature", "geometry": {"type": "Point", "coordinates": [4.936597221492019, 52.3457891013116]}, "properties": {"totaal_bijplaatsingen": 994, "aantal_niet_aplus": 738, "aantal_handhavingen": 61, "adres": "Ritzema Bosstraat 31", "aantal_grofvuil": 352}}, {"type": "Feature", "geometry": {"type": "Point", "coordinates": [4.903099471983479, 52.3851346511164]}, "properties": {"totaal_bijplaatsingen": 991, "aantal_niet_aplus": 746, "aantal_handhavingen": 96, "adres": "Bercylaan 11", "aantal_grofvuil": 373}}, {"type": "Feature", "geometry": {"type": "Point", "coordinates": [4.881108042090157, 52.3820265312004]}, "properties": {"totaal_bijplaatsingen": 991, "aantal_niet_aplus": 667, "aantal_handhavingen": 128, "adres": "Marnixstraat 38", "aantal_grofvuil": 277}}, {"type": "Feature", "geometry": {"type": "Point", "coordinates": [4.81957139680134, 52.38260982305585]}, "properties": {"totaal_bijplaatsingen": 990, "aantal_niet_aplus": 825, "aantal_handhavingen": 36, "adres": "Jan Zwanenburghof 22", "aantal_grofvuil": 422}}, {"type": "Feature", "geometry": {"type": "Point", "coordinates": [4.908909531680815, 52.3490736413644]}, "properties": {"totaal_bijplaatsingen": 990, "aantal_niet_aplus": 800, "aantal_handhavingen": 45, "adres": "Holendrechtstraat 8", "aantal_grofvuil": 403}}, {"type": "Feature", "geometry": {"type": "Point", "coordinates": [4.93786634551442, 52.36260083367156]}, "properties": {"totaal_bijplaatsingen": 989, "aantal_niet_aplus": 783, "aantal_handhavingen": 54, "adres": "Eerste Atjehstraat 142", "aantal_grofvuil": 384}}, {"type": "Feature", "geometry": {"type": "Point", "coordinates": [4.916076116250716, 52.39452784335924]}, "properties": {"totaal_bijplaatsingen": 988, "aantal_niet_aplus": 782, "aantal_handhavingen": 10, "adres": "Duindoornplein 27", "aantal_grofvuil": 262}}, {"type": "Feature", "geometry": {"type": "Point", "coordinates": [4.969791461793778, 52.29198505323258]}, "properties": {"totaal_bijplaatsingen": 985, "aantal_niet_aplus": 480, "aantal_handhavingen": 23, "adres": "Tielstraat 116", "aantal_grofvuil": 268}}, {"type": "Feature", "geometry": {"type": "Point", "coordinates": [4.971137935712008, 52.31767170324324]}, "properties": {"totaal_bijplaatsingen": 984, "aantal_niet_aplus": 574, "aantal_handhavingen": 39, "adres": "Koppenburglaan 45", "aantal_grofvuil": 324}}, {"type": "Feature", "geometry": {"type": "Point", "coordinates": [4.8396652223055785, 52.378179751343694]}, "properties": {"totaal_bijplaatsingen": 984, "aantal_niet_aplus": 817, "aantal_handhavingen": 79, "adres": "Woutertje Pietersestraat 34", "aantal_grofvuil": 498}}, {"type": "Feature", "geometry": {"type": "Point", "coordinates": [4.970568774150454, 52.29694713438766]}, "properties": {"totaal_bijplaatsingen": 983, "aantal_niet_aplus": 685, "aantal_handhavingen": 47, "adres": "Montfoorthof 130", "aantal_grofvuil": 361}}, {"type": "Feature", "geometry": {"type": "Point", "coordinates": [4.825712232352583, 52.37346794141674]}, "properties": {"totaal_bijplaatsingen": 982, "aantal_niet_aplus": 817, "aantal_handhavingen": 47, "adres": "Frans Naerebouthof 38", "aantal_grofvuil": 426}}, {"type": "Feature", "geometry": {"type": "Point", "coordinates": [4.8752107319359865, 52.35659214140275]}, "properties": {"totaal_bijplaatsingen": 982, "aantal_niet_aplus": 813, "aantal_handhavingen": 94, "adres": "Jacob Obrechtstraat 19", "aantal_grofvuil": 367}}, {"type": "Feature", "geometry": {"type": "Point", "coordinates": [4.832490016161561, 52.34973758346321]}, "properties": {"totaal_bijplaatsingen": 977, "aantal_niet_aplus": 682, "aantal_handhavingen": 72, "adres": "Ottho Heldringstraat 7", "aantal_grofvuil": 339}}, {"type": "Feature", "geometry": {"type": "Point", "coordinates": [4.876564790471543, 52.371635973892175]}, "properties": {"totaal_bijplaatsingen": 975, "aantal_niet_aplus": 721, "aantal_handhavingen": 158, "adres": "Rozenstraat & Lijnbaansgracht", "aantal_grofvuil": 226}}, {"type": "Feature", "geometry": {"type": "Point", "coordinates": [4.928406721627511, 52.35748165124852]}, "properties": {"totaal_bijplaatsingen": 964, "aantal_niet_aplus": 752, "aantal_handhavingen": 70, "adres": "Polderweg 108", "aantal_grofvuil": 422}}, {"type": "Feature", "geometry": {"type": "Point", "coordinates": [4.8353345321791386, 52.35767854150515]}, "properties": {"totaal_bijplaatsingen": 964, "aantal_niet_aplus": 729, "aantal_handhavingen": 50, "adres": "Cornelis Lelylaan 11", "aantal_grofvuil": 277}}, {"type": "Feature", "geometry": {"type": "Point", "coordinates": [4.9137601749627375, 52.33366803324813]}, "properties": {"totaal_bijplaatsingen": 963, "aantal_niet_aplus": 727, "aantal_handhavingen": 42, "adres": "Joan Muyskenweg 15", "aantal_grofvuil": 349}}, {"type": "Feature", "geometry": {"type": "Point", "coordinates": [4.984228130996809, 52.31729432138937]}, "properties": {"totaal_bijplaatsingen": 960, "aantal_niet_aplus": 858, "aantal_handhavingen": 123, "adres": "Kouwenoord 1078", "aantal_grofvuil": 696}}, {"type": "Feature", "geometry": {"type": "Point", "coordinates": [4.878077796524006, 52.38287913372968]}, "properties": {"totaal_bijplaatsingen": 958, "aantal_niet_aplus": 791, "aantal_handhavingen": 87, "adres": "De Wittenstraat 102", "aantal_grofvuil": 406}}, {"type": "Feature", "geometry": {"type": "Point", "coordinates": [4.97631024180621, 52.29814813310551]}, "properties": {"totaal_bijplaatsingen": 955, "aantal_niet_aplus": 529, "aantal_handhavingen": 32, "adres": "Papendrechtstraat 42", "aantal_grofvuil": 234}}, {"type": "Feature", "geometry": {"type": "Point", "coordinates": [4.8595984317942, 52.32486234167802]}, "properties": {"totaal_bijplaatsingen": 949, "aantal_niet_aplus": 685, "aantal_handhavingen": 103, "adres": "Bolestein 510", "aantal_grofvuil": 256}}, {"type": "Feature", "geometry": {"type": "Point", "coordinates": [5.010174974465797, 52.350049113438885]}, "properties": {"totaal_bijplaatsingen": 947, "aantal_niet_aplus": 747, "aantal_handhavingen": 67, "adres": "Ben van Meerendonkstraat 141", "aantal_grofvuil": 246}}, {"type": "Feature", "geometry": {"type": "Point", "coordinates": [4.919476371621707, 52.34955827133149]}, "properties": {"totaal_bijplaatsingen": 944, "aantal_niet_aplus": 810, "aantal_handhavingen": 139, "adres": "Eerste Ringdijkstraat 100", "aantal_grofvuil": 504}}, {"type": "Feature", "geometry": {"type": "Point", "coordinates": [4.87841996625286, 52.3649836439704]}, "properties": {"totaal_bijplaatsingen": 943, "aantal_niet_aplus": 740, "aantal_handhavingen": 118, "adres": "Tweede Helmersstraat 1", "aantal_grofvuil": 367}}, {"type": "Feature", "geometry": {"type": "Point", "coordinates": [4.969646691086629, 52.31764158142722]}, "properties": {"totaal_bijplaatsingen": 940, "aantal_niet_aplus": 610, "aantal_handhavingen": 46, "adres": "Kloekhorststraat 103", "aantal_grofvuil": 345}}, {"type": "Feature", "geometry": {"type": "Point", "coordinates": [4.801507632380014, 52.35797024159638]}, "properties": {"totaal_bijplaatsingen": 938, "aantal_niet_aplus": 811, "aantal_handhavingen": 109, "adres": "Van Suchtelen van de Haarestraat 90", "aantal_grofvuil": 546}}, {"type": "Feature", "geometry": {"type": "Point", "coordinates": [4.904563951732011, 52.35250526135126]}, "properties": {"totaal_bijplaatsingen": 932, "aantal_niet_aplus": 763, "aantal_handhavingen": 81, "adres": "Tolstraat 119", "aantal_grofvuil": 461}}, {"type": "Feature", "geometry": {"type": "Point", "coordinates": [4.837724564597329, 52.37571258273418]}, "properties": {"totaal_bijplaatsingen": 930, "aantal_niet_aplus": 736, "aantal_handhavingen": 49, "adres": "Willem Augustinstraat 275", "aantal_grofvuil": 423}}, {"type": "Feature", "geometry": {"type": "Point", "coordinates": [4.916906431741834, 52.36368034123504]}, "properties": {"totaal_bijplaatsingen": 929, "aantal_niet_aplus": 430, "aantal_handhavingen": 34, "adres": "Plantage Muidergracht 141I", "aantal_grofvuil": 177}}, {"type": "Feature", "geometry": {"type": "Point", "coordinates": [4.960744111186076, 52.3239023214057]}, "properties": {"totaal_bijplaatsingen": 924, "aantal_niet_aplus": 788, "aantal_handhavingen": 147, "adres": "Echtenstein 111", "aantal_grofvuil": 583}}, {"type": "Feature", "geometry": {"type": "Point", "coordinates": [4.913924432070555, 52.40530514093851]}, "properties": {"totaal_bijplaatsingen": 924, "aantal_niet_aplus": 784, "aantal_handhavingen": 19, "adres": "Lichterstraat 100", "aantal_grofvuil": 430}}, {"type": "Feature", "geometry": {"type": "Point", "coordinates": [4.857188132180245, 52.37518644131688]}, "properties": {"totaal_bijplaatsingen": 924, "aantal_niet_aplus": 705, "aantal_handhavingen": 69, "adres": "Joos Banckersweg 8", "aantal_grofvuil": 272}}, {"type": "Feature", "geometry": {"type": "Point", "coordinates": [4.831832797008634, 52.37895203404037]}, "properties": {"totaal_bijplaatsingen": 923, "aantal_niet_aplus": 685, "aantal_handhavingen": 31, "adres": "Burgemeester Fockstraat 37", "aantal_grofvuil": 345}}, {"type": "Feature", "geometry": {"type": "Point", "coordinates": [4.839376596450346, 52.34732356442622]}, "properties": {"totaal_bijplaatsingen": 921, "aantal_niet_aplus": 692, "aantal_handhavingen": 37, "adres": "Overschiestraat 170", "aantal_grofvuil": 389}}, {"type": "Feature", "geometry": {"type": "Point", "coordinates": [4.811746112450943, 52.37568273143924]}, "properties": {"totaal_bijplaatsingen": 919, "aantal_niet_aplus": 794, "aantal_handhavingen": 50, "adres": "John Lockehof 1", "aantal_grofvuil": 466}}, {"type": "Feature", "geometry": {"type": "Point", "coordinates": [4.790920367117447, 52.3540015846035]}, "properties": {"totaal_bijplaatsingen": 919, "aantal_niet_aplus": 518, "aantal_handhavingen": 7, "adres": "Langswater 120", "aantal_grofvuil": 155}}, {"type": "Feature", "geometry": {"type": "Point", "coordinates": [4.922656731785098, 52.37406464114288]}, "properties": {"totaal_bijplaatsingen": 915, "aantal_niet_aplus": 556, "aantal_handhavingen": 48, "adres": "Marinierskade 54", "aantal_grofvuil": 271}}, {"type": "Feature", "geometry": {"type": "Point", "coordinates": [4.917738631972719, 52.3952673410013]}, "properties": {"totaal_bijplaatsingen": 911, "aantal_niet_aplus": 701, "aantal_handhavingen": 49, "adres": "Wingerdweg 145", "aantal_grofvuil": 238}}, {"type": "Feature", "geometry": {"type": "Point", "coordinates": [4.93066312530615, 52.37022239261723]}, "properties": {"totaal_bijplaatsingen": 911, "aantal_niet_aplus": 626, "aantal_handhavingen": 50, "adres": "Tweede Leeghwaterstraat 2", "aantal_grofvuil": 293}}, {"type": "Feature", "geometry": {"type": "Point", "coordinates": [4.940079401576837, 52.35999236119756]}, "properties": {"totaal_bijplaatsingen": 909, "aantal_niet_aplus": 738, "aantal_handhavingen": 33, "adres": "Tidorestraat 10A", "aantal_grofvuil": 272}}, {"type": "Feature", "geometry": {"type": "Point", "coordinates": [4.82525006483262, 52.38168988271629]}, "properties": {"totaal_bijplaatsingen": 908, "aantal_niet_aplus": 758, "aantal_handhavingen": 31, "adres": "Van Gilsestraat 31", "aantal_grofvuil": 402}}, {"type": "Feature", "geometry": {"type": "Point", "coordinates": [4.873306466601394, 52.384298743737126]}, "properties": {"totaal_bijplaatsingen": 908, "aantal_niet_aplus": 724, "aantal_handhavingen": 48, "adres": "Fannius Scholtenstraat 29", "aantal_grofvuil": 320}}, {"type": "Feature", "geometry": {"type": "Point", "coordinates": [4.982052301001926, 52.31622365140331]}, "properties": {"totaal_bijplaatsingen": 903, "aantal_niet_aplus": 841, "aantal_handhavingen": 149, "adres": "Klieverink 1072", "aantal_grofvuil": 697}}, {"type": "Feature", "geometry": {"type": "Point", "coordinates": [5.000543514639221, 52.35394888343936]}, "properties": {"totaal_bijplaatsingen": 901, "aantal_niet_aplus": 680, "aantal_handhavingen": 68, "adres": "Maria Austriastraat 973", "aantal_grofvuil": 314}}, {"type": "Feature", "geometry": {"type": "Point", "coordinates": [4.937117185648667, 52.37098344356158]}, "properties": {"totaal_bijplaatsingen": 898, "aantal_niet_aplus": 653, "aantal_handhavingen": 35, "adres": "Borneolaan 176", "aantal_grofvuil": 363}}, {"type": "Feature", "geometry": {"type": "Point", "coordinates": [4.841533842321595, 52.38181254131207]}, "properties": {"totaal_bijplaatsingen": 896, "aantal_niet_aplus": 754, "aantal_handhavingen": 31, "adres": "Lauernessestraat 1", "aantal_grofvuil": 328}}, {"type": "Feature", "geometry": {"type": "Point", "coordinates": [4.974334151824915, 52.29780963312141]}, "properties": {"totaal_bijplaatsingen": 892, "aantal_niet_aplus": 409, "aantal_handhavingen": 25, "adres": "Remmerdenplein 38", "aantal_grofvuil": 201}}, {"type": "Feature", "geometry": {"type": "Point", "coordinates": [4.819361572424181, 52.378096251400606]}, "properties": {"totaal_bijplaatsingen": 886, "aantal_niet_aplus": 753, "aantal_handhavingen": 35, "adres": "Martinus Nijhoffstraat 100", "aantal_grofvuil": 326}}, {"type": "Feature", "geometry": {"type": "Point", "coordinates": [4.912157726457503, 52.40519767323648]}, "properties": {"totaal_bijplaatsingen": 884, "aantal_niet_aplus": 819, "aantal_handhavingen": 61, "adres": "Tjalkstraat 108", "aantal_grofvuil": 572}}, {"type": "Feature", "geometry": {"type": "Point", "coordinates": [4.870893466603603, 52.382548243774224]}, "properties": {"totaal_bijplaatsingen": 879, "aantal_niet_aplus": 666, "aantal_handhavingen": 61, "adres": "Van Hogendorpstraat 207", "aantal_grofvuil": 334}}, {"type": "Feature", "geometry": {"type": "Point", "coordinates": [4.912004566113704, 52.38219514354949]}, "properties": {"totaal_bijplaatsingen": 879, "aantal_niet_aplus": 645, "aantal_handhavingen": 37, "adres": "IJplein 456", "aantal_grofvuil": 236}}, {"type": "Feature", "geometry": {"type": "Point", "coordinates": [4.963810315397944, 52.37538454335212]}, "properties": {"totaal_bijplaatsingen": 877, "aantal_niet_aplus": 706, "aantal_handhavingen": 98, "adres": "Mary van der Sluisstraat 498", "aantal_grofvuil": 344}}, {"type": "Feature", "geometry": {"type": "Point", "coordinates": [4.9526054811769695, 52.31608518148592]}, "properties": {"totaal_bijplaatsingen": 875, "aantal_niet_aplus": 580, "aantal_handhavingen": 97, "adres": "Elizabeth Cady Stantonplein 1004", "aantal_grofvuil": 341}}, {"type": "Feature", "geometry": {"type": "Point", "coordinates": [4.958190641038615, 52.30182593157562]}, "properties": {"totaal_bijplaatsingen": 874, "aantal_niet_aplus": 654, "aantal_handhavingen": 65, "adres": "Nieuwersluishof 84", "aantal_grofvuil": 437}}, {"type": "Feature", "geometry": {"type": "Point", "coordinates": [4.911925031974321, 52.3908890410496]}, "properties": {"totaal_bijplaatsingen": 874, "aantal_niet_aplus": 716, "aantal_handhavingen": 63, "adres": "Gentiaanstraat 1", "aantal_grofvuil": 445}}, {"type": "Feature", "geometry": {"type": "Point", "coordinates": [4.929996271669646, 52.36441462119319]}, "properties": {"totaal_bijplaatsingen": 873, "aantal_niet_aplus": 704, "aantal_handhavingen": 56, "adres": "Roomtuintjes 162", "aantal_grofvuil": 204}}, {"type": "Feature", "geometry": {"type": "Point", "coordinates": [4.878564466484884, 52.38064614375728]}, "properties": {"totaal_bijplaatsingen": 872, "aantal_niet_aplus": 657, "aantal_handhavingen": 38, "adres": "Fagelstraat 8", "aantal_grofvuil": 373}}, {"type": "Feature", "geometry": {"type": "Point", "coordinates": [4.9321108431938585, 52.35632728249338]}, "properties": {"totaal_bijplaatsingen": 871, "aantal_niet_aplus": 514, "aantal_handhavingen": 63, "adres": "Linnaeuskade 30", "aantal_grofvuil": 308}}, {"type": "Feature", "geometry": {"type": "Point", "coordinates": [4.97833443104885, 52.31956238138901]}, "properties": {"totaal_bijplaatsingen": 870, "aantal_niet_aplus": 508, "aantal_handhavingen": 89, "adres": "Kleiburg 12A", "aantal_grofvuil": 260}}, {"type": "Feature", "geometry": {"type": "Point", "coordinates": [4.959487551724958, 52.395224510884574]}, "properties": {"totaal_bijplaatsingen": 870, "aantal_niet_aplus": 679, "aantal_handhavingen": 55, "adres": "Den Helderstraat 38", "aantal_grofvuil": 375}}, {"type": "Feature", "geometry": {"type": "Point", "coordinates": [4.944074571269906, 52.32178418146746]}, "properties": {"totaal_bijplaatsingen": 865, "aantal_niet_aplus": 471, "aantal_handhavingen": 41, "adres": "Andersensingel 154", "aantal_grofvuil": 209}}, {"type": "Feature", "geometry": {"type": "Point", "coordinates": [4.860738232057858, 52.36151204140685]}, "properties": {"totaal_bijplaatsingen": 864, "aantal_niet_aplus": 682, "aantal_handhavingen": 74, "adres": "Pieter Langendijkstraat 13", "aantal_grofvuil": 303}}, {"type": "Feature", "geometry": {"type": "Point", "coordinates": [4.907166931855844, 52.37124614120671]}, "properties": {"totaal_bijplaatsingen": 863, "aantal_niet_aplus": 565, "aantal_handhavingen": 120, "adres": "Nieuwe Uilenburgerstraat 2", "aantal_grofvuil": 109}}, {"type": "Feature", "geometry": {"type": "Point", "coordinates": [4.845966766879319, 52.38139784392872]}, "properties": {"totaal_bijplaatsingen": 862, "aantal_niet_aplus": 662, "aantal_handhavingen": 47, "adres": "Jephtastraat 64", "aantal_grofvuil": 359}}, {"type": "Feature", "geometry": {"type": "Point", "coordinates": [4.967306270912856, 52.29213212162205]}, "properties": {"totaal_bijplaatsingen": 861, "aantal_niet_aplus": 674, "aantal_handhavingen": 74, "adres": "Tolkamerstraat 2A", "aantal_grofvuil": 508}}, {"type": "Feature", "geometry": {"type": "Point", "coordinates": [4.978870811067468, 52.32251499136572]}, "properties": {"totaal_bijplaatsingen": 859, "aantal_niet_aplus": 497, "aantal_handhavingen": 11, "adres": "Glitterstraat 1", "aantal_grofvuil": 188}},