{"type": "FeatureCollection", "features": [{"type": "Feature", "geometry": {"type": "Point", "coordinates": [4.889670923654586, 52.36979328924252]}, "properties": {"totaal_bijplaatsingen": 4901, "aantal_handhavingen": 879, "adres": "Nieuwezijds Voorburgwal 361", "aantal_grofvuil": 1340}}, {"type": "Feature", "geometry": {"type": "Point", "coordinates": [4.963684811132281, 52.318998111433714]}, "properties": {"totaal_bijplaatsingen": 4810, "aantal_handhavingen": 323, "adres": "Bijlmerdreef 743", "aantal_grofvuil": 2381}}, {"type": "Feature", "geometry": {"type": "Point", "coordinates": [4.851260866800416, 52.38027524391443]}, "properties": {"totaal_bijplaatsingen": 3479, "aantal_handhavingen": 226, "adres": "Leeuwendalersweg 1", "aantal_grofvuil": 1497}}, {"type": "Feature", "geometry": {"type": "Point", "coordinates": [4.947839821274111, 52.305197252968206]}, "properties": {"totaal_bijplaatsingen": 3276, "aantal_handhavingen": 417, "adres": "Karspeldreef 4", "aantal_grofvuil": 1941}}, {"type": "Feature", "geometry": {"type": "Point", "coordinates": [4.922354436055971, 52.413581252028365]}, "properties": {"totaal_bijplaatsingen": 3047, "aantal_handhavingen": 162, "adres": "Noorderbreedte 153", "aantal_grofvuil": 1669}}, {"type": "Feature", "geometry": {"type": "Point", "coordinates": [4.835994632110228, 52.348872041567546]}, "properties": {"totaal_bijplaatsingen": 2792, "aantal_handhavingen": 437, "adres": "Maassluisstraat 438", "aantal_grofvuil": 1144}}, {"type": "Feature", "geometry": {"type": "Point", "coordinates": [4.8532504321335175, 52.36576594139656]}, "properties": {"totaal_bijplaatsingen": 2641, "aantal_handhavingen": 187, "adres": "Hoofdweg 180", "aantal_grofvuil": 864}}, {"type": "Feature", "geometry": {"type": "Point", "coordinates": [4.87632242641827, 52.37441911385415]}, "properties": {"totaal_bijplaatsingen": 2597, "aantal_handhavingen": 547, "adres": "Marnixstraat tegenover 293", "aantal_grofvuil": 1088}}, {"type": "Feature", "geometry": {"type": "Point", "coordinates": [4.888486731962883, 52.37078374126205]}, "properties": {"totaal_bijplaatsingen": 2582, "aantal_handhavingen": 937, "adres": "Singel 297", "aantal_grofvuil": 612}}, {"type": "Feature", "geometry": {"type": "Point", "coordinates": [4.889246963923379, 52.37122753251346]}, "properties": {"totaal_bijplaatsingen": 2562, "aantal_handhavingen": 665, "adres": "Spuistraat 234", "aantal_grofvuil": 661}}, {"type": "Feature", "geometry": {"type": "Point", "coordinates": [4.8983886319254895, 52.37362444121376]}, "properties": {"totaal_bijplaatsingen": 2510, "aantal_handhavingen": 359, "adres": "Oudezijds Voorburgwal 85", "aantal_grofvuil": 765}}, {"type": "Feature", "geometry": {"type": "Point", "coordinates": [4.970744721123072, 52.32346276138124]}, "properties": {"totaal_bijplaatsingen": 2507, "aantal_handhavingen": 267, "adres": "Geldershoofd 116", "aantal_grofvuil": 1536}}, {"type": "Feature", "geometry": {"type": "Point", "coordinates": [4.900016931910344, 52.37288374121463]}, "properties": {"totaal_bijplaatsingen": 2500, "aantal_handhavingen": 655, "adres": "Nieuwmarkt 10III", "aantal_grofvuil": 1055}}, {"type": "Feature", "geometry": {"type": "Point", "coordinates": [4.873196632019339, 52.366229241337855]}, "properties": {"totaal_bijplaatsingen": 2464, "aantal_handhavingen": 308, "adres": "Jacob van Lennepstraat 55A", "aantal_grofvuil": 1223}}, {"type": "Feature", "geometry": {"type": "Point", "coordinates": [4.923129481601573, 52.34976792131982]}, "properties": {"totaal_bijplaatsingen": 2458, "aantal_handhavingen": 325, "adres": "Pierre Lallementstraat 164", "aantal_grofvuil": 1257}}, {"type": "Feature", "geometry": {"type": "Point", "coordinates": [4.936768431872001, 52.39685904093631]}, "properties": {"totaal_bijplaatsingen": 2368, "aantal_handhavingen": 89, "adres": "Het Laagt 87", "aantal_grofvuil": 760}}, {"type": "Feature", "geometry": {"type": "Point", "coordinates": [4.972968281093774, 52.32129771139105]}, "properties": {"totaal_bijplaatsingen": 2367, "aantal_handhavingen": 249, "adres": "Groeneveen 62", "aantal_grofvuil": 1352}}, {"type": "Feature", "geometry": {"type": "Point", "coordinates": [4.901913931783751, 52.35736418132301]}, "properties": {"totaal_bijplaatsingen": 2352, "aantal_handhavingen": 221, "adres": "Govert Flinckstraat 339", "aantal_grofvuil": 994}}, {"type": "Feature", "geometry": {"type": "Point", "coordinates": [4.839621732135176, 52.35514444151181]}, "properties": {"totaal_bijplaatsingen": 2318, "aantal_handhavingen": 403, "adres": "Carnapstraat 14", "aantal_grofvuil": 1081}}, {"type": "Feature", "geometry": {"type": "Point", "coordinates": [4.968037424579903, 52.32393682403169]}, "properties": {"totaal_bijplaatsingen": 2270, "aantal_handhavingen": 182, "adres": "Gravestein 35", "aantal_grofvuil": 1377}}, {"type": "Feature", "geometry": {"type": "Point", "coordinates": [4.935057631634849, 52.36377725118376]}, "properties": {"totaal_bijplaatsingen": 2260, "aantal_handhavingen": 158, "adres": "Javastraat 87", "aantal_grofvuil": 824}}, {"type": "Feature", "geometry": {"type": "Point", "coordinates": [4.888722831820678, 52.35181061140029]}, "properties": {"totaal_bijplaatsingen": 2257, "aantal_handhavingen": 226, "adres": "Van Ostadestraat 45A", "aantal_grofvuil": 1269}}, {"type": "Feature", "geometry": {"type": "Point", "coordinates": [4.927265391768599, 52.375515571119394]}, "properties": {"totaal_bijplaatsingen": 2218, "aantal_handhavingen": 572, "adres": "Piet Heinkade 227", "aantal_grofvuil": 1113}}, {"type": "Feature", "geometry": {"type": "Point", "coordinates": [4.975048875787231, 52.31688360057445]}, "properties": {"totaal_bijplaatsingen": 2216, "aantal_handhavingen": 141, "adres": "Kikkenstein 1014", "aantal_grofvuil": 913}}, {"type": "Feature", "geometry": {"type": "Point", "coordinates": [4.81299334246082, 52.378001691418966]}, "properties": {"totaal_bijplaatsingen": 2208, "aantal_handhavingen": 110, "adres": "Burgemeester Van Leeuwenlaan 88", "aantal_grofvuil": 1102}}, {"type": "Feature", "geometry": {"type": "Point", "coordinates": [4.897606831952839, 52.3766752411936]}, "properties": {"totaal_bijplaatsingen": 2179, "aantal_handhavingen": 23, "adres": "Damrak 12", "aantal_grofvuil": 82}}, {"type": "Feature", "geometry": {"type": "Point", "coordinates": [4.902997541713259, 52.34872227138332]}, "properties": {"totaal_bijplaatsingen": 2166, "aantal_handhavingen": 151, "adres": "Amstelkade 40", "aantal_grofvuil": 908}}, {"type": "Feature", "geometry": {"type": "Point", "coordinates": [4.841545467257712, 52.34999618388805]}, "properties": {"totaal_bijplaatsingen": 2165, "aantal_handhavingen": 214, "adres": "Rijswijkstraat 141", "aantal_grofvuil": 939}}, {"type": "Feature", "geometry": {"type": "Point", "coordinates": [4.952404215447404, 52.39681964210472]}, "properties": {"totaal_bijplaatsingen": 2138, "aantal_handhavingen": 180, "adres": "IJdoornlaan 347", "aantal_grofvuil": 1094}}, {"type": "Feature", "geometry": {"type": "Point", "coordinates": [4.864486326005683, 52.36464014306808]}, "properties": {"totaal_bijplaatsingen": 2133, "aantal_handhavingen": 182, "adres": "Borgerstraat 124", "aantal_grofvuil": 1122}}, {"type": "Feature", "geometry": {"type": "Point", "coordinates": [4.92763056531284, 52.36826338266289]}, "properties": {"totaal_bijplaatsingen": 2133, "aantal_handhavingen": 345, "adres": "Tweede Coehoornstraat", "aantal_grofvuil": 1428}}, {"type": "Feature", "geometry": {"type": "Point", "coordinates": [4.97773214402855, 52.32208776306322]}, "properties": {"totaal_bijplaatsingen": 2118, "aantal_handhavingen": 214, "adres": "Grubbehoeve 231", "aantal_grofvuil": 1330}}, {"type": "Feature", "geometry": {"type": "Point", "coordinates": [4.907508731645547, 52.343188441411456]}, "properties": {"totaal_bijplaatsingen": 2108, "aantal_handhavingen": 273, "adres": "Vechtstraat 109", "aantal_grofvuil": 1053}}, {"type": "Feature", "geometry": {"type": "Point", "coordinates": [4.821610667173565, 52.38198344405624]}, "properties": {"totaal_bijplaatsingen": 2051, "aantal_handhavingen": 106, "adres": "Slotermeerlaan 135", "aantal_grofvuil": 1082}}, {"type": "Feature", "geometry": {"type": "Point", "coordinates": [4.862355564156049, 52.36551885274624]}, "properties": {"totaal_bijplaatsingen": 2034, "aantal_handhavingen": 335, "adres": "Hasebroekstraat 101", "aantal_grofvuil": 1249}}, {"type": "Feature", "geometry": {"type": "Point", "coordinates": [4.958725674503371, 52.31126951425684]}, "properties": {"totaal_bijplaatsingen": 2016, "aantal_handhavingen": 111, "adres": "Haag en Veld 47", "aantal_grofvuil": 1130}}, {"type": "Feature", "geometry": {"type": "Point", "coordinates": [4.893775732279797, 52.4173318409072]}, "properties": {"totaal_bijplaatsingen": 2015, "aantal_handhavingen": 120, "adres": "Stellingweg 343", "aantal_grofvuil": 680}}, {"type": "Feature", "geometry": {"type": "Point", "coordinates": [4.905706582023899, 52.39260242105447]}, "properties": {"totaal_bijplaatsingen": 1993, "aantal_handhavingen": 90, "adres": "Distelweg 74A", "aantal_grofvuil": 974}}, {"type": "Feature", "geometry": {"type": "Point", "coordinates": [4.902968711824969, 52.363755241273246]}, "properties": {"totaal_bijplaatsingen": 1978, "aantal_handhavingen": 376, "adres": "Amstel 75", "aantal_grofvuil": 440}}, {"type": "Feature", "geometry": {"type": "Point", "coordinates": [4.885512131948272, 52.366454041302006]}, "properties": {"totaal_bijplaatsingen": 1955, "aantal_handhavingen": 537, "adres": "Keizersgracht 482", "aantal_grofvuil": 471}}, {"type": "Feature", "geometry": {"type": "Point", "coordinates": [4.805527742506235, 52.37822601143802]}, "properties": {"totaal_bijplaatsingen": 1944, "aantal_handhavingen": 118, "adres": "Dirk Sonoystraat 11", "aantal_grofvuil": 991}}, {"type": "Feature", "geometry": {"type": "Point", "coordinates": [4.838513932247512, 52.36944244141062]}, "properties": {"totaal_bijplaatsingen": 1942, "aantal_handhavingen": 136, "adres": "Jan Evertsenstraat 401", "aantal_grofvuil": 883}}, {"type": "Feature", "geometry": {"type": "Point", "coordinates": [4.891451532048152, 52.38457964115295]}, "properties": {"totaal_bijplaatsingen": 1931, "aantal_handhavingen": 105, "adres": "Westerdok 324", "aantal_grofvuil": 708}}, {"type": "Feature", "geometry": {"type": "Point", "coordinates": [5.009300994462985, 52.34916311345592]}, "properties": {"totaal_bijplaatsingen": 1870, "aantal_handhavingen": 235, "adres": "Eva Besny\u00f6straat 571", "aantal_grofvuil": 853}}, {"type": "Feature", "geometry": {"type": "Point", "coordinates": [4.947339595311695, 52.3565547437011]}, "properties": {"totaal_bijplaatsingen": 1864, "aantal_handhavingen": 236, "adres": "Carolina MacGillavrylaan 1426", "aantal_grofvuil": 800}}, {"type": "Feature", "geometry": {"type": "Point", "coordinates": [4.825689332246625, 52.35913444152119]}, "properties": {"totaal_bijplaatsingen": 1863, "aantal_handhavingen": 112, "adres": "Comeniusstraat 553", "aantal_grofvuil": 904}}, {"type": "Feature", "geometry": {"type": "Point", "coordinates": [4.891635731887483, 52.36314314130923]}, "properties": {"totaal_bijplaatsingen": 1850, "aantal_handhavingen": 396, "adres": "kleine gartmanplantsoen12", "aantal_grofvuil": 559}}, {"type": "Feature", "geometry": {"type": "Point", "coordinates": [4.920287681532854, 52.33821098141256]}, "properties": {"totaal_bijplaatsingen": 1835, "aantal_handhavingen": 208, "adres": "Amstelvlietstraat 101", "aantal_grofvuil": 926}}, {"type": "Feature", "geometry": {"type": "Point", "coordinates": [4.850314532248506, 52.37892654130868]}, "properties": {"totaal_bijplaatsingen": 1823, "aantal_handhavingen": 167, "adres": "Bos en Lommerweg 234", "aantal_grofvuil": 702}}, {"type": "Feature", "geometry": {"type": "Point", "coordinates": [4.876000506179686, 52.35815031407648]}, "properties": {"totaal_bijplaatsingen": 1805, "aantal_handhavingen": 290, "adres": "Van Eeghenstraat 28", "aantal_grofvuil": 810}}, {"type": "Feature", "geometry": {"type": "Point", "coordinates": [4.861594894304058, 52.3748825226137]}, "properties": {"totaal_bijplaatsingen": 1804, "aantal_handhavingen": 155, "adres": "Reinier Claeszenstraat 75", "aantal_grofvuil": 679}}, {"type": "Feature", "geometry": {"type": "Point", "coordinates": [4.837173632214639, 52.36394034145443]}, "properties": {"totaal_bijplaatsingen": 1798, "aantal_handhavingen": 197, "adres": "Postjesweg 311", "aantal_grofvuil": 880}}, {"type": "Feature", "geometry": {"type": "Point", "coordinates": [4.962354844250682, 52.29708710443115]}, "properties": {"totaal_bijplaatsingen": 1781, "aantal_handhavingen": 97, "adres": "Opheusdenhof 170", "aantal_grofvuil": 889}}, {"type": "Feature", "geometry": {"type": "Point", "coordinates": [4.859282066583835, 52.37207334398075]}, "properties": {"totaal_bijplaatsingen": 1773, "aantal_handhavingen": 170, "adres": "Admiraal De Ruijterweg 97", "aantal_grofvuil": 757}}, {"type": "Feature", "geometry": {"type": "Point", "coordinates": [4.840621332170241, 52.36068284146862]}, "properties": {"totaal_bijplaatsingen": 1773, "aantal_handhavingen": 114, "adres": "Derkinderenstraat 48", "aantal_grofvuil": 857}}, {"type": "Feature", "geometry": {"type": "Point", "coordinates": [4.900293881747964, 52.35124375137233]}, "properties": {"totaal_bijplaatsingen": 1769, "aantal_handhavingen": 144, "adres": "Lutmastraat 142", "aantal_grofvuil": 726}}, {"type": "Feature", "geometry": {"type": "Point", "coordinates": [4.968260735268782, 52.37029989339651]}, "properties": {"totaal_bijplaatsingen": 1760, "aantal_handhavingen": 233, "adres": "Kees Broekmanstraat 624", "aantal_grofvuil": 989}}, {"type": "Feature", "geometry": {"type": "Point", "coordinates": [4.938268665451796, 52.35872723372205]}, "properties": {"totaal_bijplaatsingen": 1743, "aantal_handhavingen": 169, "adres": "Sumatrastraat 166", "aantal_grofvuil": 842}}, {"type": "Feature", "geometry": {"type": "Point", "coordinates": [4.967320573782286, 52.297002953491486]}, "properties": {"totaal_bijplaatsingen": 1727, "aantal_handhavingen": 112, "adres": "Millingenhof 140", "aantal_grofvuil": 884}}, {"type": "Feature", "geometry": {"type": "Point", "coordinates": [4.953004562429233, 52.32151107288958]}, "properties": {"totaal_bijplaatsingen": 1727, "aantal_handhavingen": 314, "adres": "Dennenrodepad 275", "aantal_grofvuil": 904}}, {"type": "Feature", "geometry": {"type": "Point", "coordinates": [4.957319531077009, 52.3063380415447]}, "properties": {"totaal_bijplaatsingen": 1705, "aantal_handhavingen": 73, "adres": "Hakfort 23", "aantal_grofvuil": 923}}, {"type": "Feature", "geometry": {"type": "Point", "coordinates": [4.878760632006695, 52.36894934130253]}, "properties": {"totaal_bijplaatsingen": 1703, "aantal_handhavingen": 557, "adres": "Elandsgracht 109", "aantal_grofvuil": 343}}, {"type": "Feature", "geometry": {"type": "Point", "coordinates": [4.87317809205736, 52.371333481300624]}, "properties": {"totaal_bijplaatsingen": 1686, "aantal_handhavingen": 271, "adres": "Da Costastraat 2", "aantal_grofvuil": 959}}, {"type": "Feature", "geometry": {"type": "Point", "coordinates": [4.88983004183989, 52.355288311371744]}, "properties": {"totaal_bijplaatsingen": 1673, "aantal_handhavingen": 158, "adres": "Gerard Doustraat 56A", "aantal_grofvuil": 614}}, {"type": "Feature", "geometry": {"type": "Point", "coordinates": [4.932889431691839, 52.36969774114634]}, "properties": {"totaal_bijplaatsingen": 1671, "aantal_handhavingen": 269, "adres": "Funenpark 10", "aantal_grofvuil": 1051}}, {"type": "Feature", "geometry": {"type": "Point", "coordinates": [4.917848241563092, 52.34033937140369]}, "properties": {"totaal_bijplaatsingen": 1663, "aantal_handhavingen": 316, "adres": "Korte Ouderkerkerdijk 5B", "aantal_grofvuil": 774}}, {"type": "Feature", "geometry": {"type": "Point", "coordinates": [4.927112765714375, 52.367453343665495]}, "properties": {"totaal_bijplaatsingen": 1648, "aantal_handhavingen": 126, "adres": "Cruquiuskade 10", "aantal_grofvuil": 848}}, {"type": "Feature", "geometry": {"type": "Point", "coordinates": [4.963989251010418, 52.30270834155306]}, "properties": {"totaal_bijplaatsingen": 1629, "aantal_handhavingen": 159, "adres": "Maarsenhof 169", "aantal_grofvuil": 1091}}, {"type": "Feature", "geometry": {"type": "Point", "coordinates": [4.982736364975168, 52.36220237342613]}, "properties": {"totaal_bijplaatsingen": 1625, "aantal_handhavingen": 135, "adres": "IJburglaan 399", "aantal_grofvuil": 700}}, {"type": "Feature", "geometry": {"type": "Point", "coordinates": [4.899539865675427, 52.34292294415273]}, "properties": {"totaal_bijplaatsingen": 1616, "aantal_handhavingen": 207, "adres": "Uiterwaardenstraat 193", "aantal_grofvuil": 707}}, {"type": "Feature", "geometry": {"type": "Point", "coordinates": [4.840194866460743, 52.34867604440336]}, "properties": {"totaal_bijplaatsingen": 1610, "aantal_handhavingen": 147, "adres": "Voorburgstraat 256", "aantal_grofvuil": 772}}, {"type": "Feature", "geometry": {"type": "Point", "coordinates": [4.87935733203454, 52.37316884127002]}, "properties": {"totaal_bijplaatsingen": 1586, "aantal_handhavingen": 258, "adres": "Rozengracht 158", "aantal_grofvuil": 555}}, {"type": "Feature", "geometry": {"type": "Point", "coordinates": [4.9596899143277895, 52.30015799440372]}, "properties": {"totaal_bijplaatsingen": 1581, "aantal_handhavingen": 208, "adres": "Nieuwlandhof 183", "aantal_grofvuil": 1151}}, {"type": "Feature", "geometry": {"type": "Point", "coordinates": [4.891277363636577, 52.35352918276122]}, "properties": {"totaal_bijplaatsingen": 1575, "aantal_handhavingen": 153, "adres": "Eerste Jan van der Heijdenstraat 121", "aantal_grofvuil": 744}}, {"type": "Feature", "geometry": {"type": "Point", "coordinates": [4.803995432523745, 52.37937724143386]}, "properties": {"totaal_bijplaatsingen": 1564, "aantal_handhavingen": 92, "adres": "Jan Bongastraat 2", "aantal_grofvuil": 709}}, {"type": "Feature", "geometry": {"type": "Point", "coordinates": [4.849246432035311, 52.34930154152784]}, "properties": {"totaal_bijplaatsingen": 1555, "aantal_handhavingen": 103, "adres": "Rietwijkerstraat 32", "aantal_grofvuil": 685}}, {"type": "Feature", "geometry": {"type": "Point", "coordinates": [4.930030931925087, 52.398615740942375]}, "properties": {"totaal_bijplaatsingen": 1540, "aantal_handhavingen": 76, "adres": "Loenermark 317", "aantal_grofvuil": 692}}, {"type": "Feature", "geometry": {"type": "Point", "coordinates": [4.895059957199309, 52.37327031577101]}, "properties": {"totaal_bijplaatsingen": 1537, "aantal_handhavingen": 202, "adres": "Warmoesstraat 163", "aantal_grofvuil": 282}}, {"type": "Feature", "geometry": {"type": "Point", "coordinates": [4.908129666267803, 52.38942074347306]}, "properties": {"totaal_bijplaatsingen": 1519, "aantal_handhavingen": 75, "adres": "Heimansweg 36", "aantal_grofvuil": 822}}, {"type": "Feature", "geometry": {"type": "Point", "coordinates": [4.8736018720659615, 52.37282694128852]}, "properties": {"totaal_bijplaatsingen": 1499, "aantal_handhavingen": 156, "adres": "Da Costakade 13", "aantal_grofvuil": 651}}, {"type": "Feature", "geometry": {"type": "Point", "coordinates": [4.889717866710422, 52.40444091337262]}, "properties": {"totaal_bijplaatsingen": 1499, "aantal_handhavingen": 128, "adres": "ms. Oslofjordweg 703", "aantal_grofvuil": 726}}, {"type": "Feature", "geometry": {"type": "Point", "coordinates": [4.894507038796169, 52.37523559196736]}, "properties": {"totaal_bijplaatsingen": 1489, "aantal_handhavingen": 5, "adres": "Nieuwendijk 168", "aantal_grofvuil": 17}}, {"type": "Feature", "geometry": {"type": "Point", "coordinates": [4.958586092337826, 52.31983438288336]}, "properties": {"totaal_bijplaatsingen": 1478, "aantal_handhavingen": 166, "adres": "Janusz Korczakplantsoen 1", "aantal_grofvuil": 885}}, {"type": "Feature", "geometry": {"type": "Point", "coordinates": [4.854050532248664, 52.38190324127659]}, "properties": {"totaal_bijplaatsingen": 1461, "aantal_handhavingen": 139, "adres": "Kijkduinstraat 33", "aantal_grofvuil": 812}}, {"type": "Feature", "geometry": {"type": "Point", "coordinates": [4.956140131740238, 52.39461234089845]}, "properties": {"totaal_bijplaatsingen": 1454, "aantal_handhavingen": 159, "adres": "Wieringerwaardstraat 38", "aantal_grofvuil": 908}}, {"type": "Feature", "geometry": {"type": "Point", "coordinates": [4.936867586135328, 52.40317806312499]}, "properties": {"totaal_bijplaatsingen": 1443, "aantal_handhavingen": 239, "adres": "H. Cleyndertweg 431", "aantal_grofvuil": 814}}, {"type": "Feature", "geometry": {"type": "Point", "coordinates": [4.915076807035002, 52.362521493676816]}, "properties": {"totaal_bijplaatsingen": 1442, "aantal_handhavingen": 416, "adres": "Sarphatistraat 370", "aantal_grofvuil": 417}}, {"type": "Feature", "geometry": {"type": "Point", "coordinates": [4.893753311811459, 52.35458503136603]}, "properties": {"totaal_bijplaatsingen": 1436, "aantal_handhavingen": 180, "adres": "Sarphatipark 1", "aantal_grofvuil": 524}}, {"type": "Feature", "geometry": {"type": "Point", "coordinates": [4.855020896635588, 52.37218444400294]}, "properties": {"totaal_bijplaatsingen": 1433, "aantal_handhavingen": 95, "adres": "Marco Polostraat 266", "aantal_grofvuil": 579}}, {"type": "Feature", "geometry": {"type": "Point", "coordinates": [4.843924572293363, 52.37990548131934]}, "properties": {"totaal_bijplaatsingen": 1422, "aantal_handhavingen": 66, "adres": "Sinjeur Semeynsstraat 29", "aantal_grofvuil": 737}}, {"type": "Feature", "geometry": {"type": "Point", "coordinates": [4.948115862565784, 52.326806382838654]}, "properties": {"totaal_bijplaatsingen": 1418, "aantal_handhavingen": 92, "adres": "Dalsteindreef 434", "aantal_grofvuil": 811}}, {"type": "Feature", "geometry": {"type": "Point", "coordinates": [4.916509886478572, 52.40999972314688]}, "properties": {"totaal_bijplaatsingen": 1418, "aantal_handhavingen": 66, "adres": "Binnenvaart & Westerlengte", "aantal_grofvuil": 825}}, {"type": "Feature", "geometry": {"type": "Point", "coordinates": [4.820288882939642, 52.38068154740218]}, "properties": {"totaal_bijplaatsingen": 1417, "aantal_handhavingen": 74, "adres": "Bernard Loderstraat 15", "aantal_grofvuil": 795}}, {"type": "Feature", "geometry": {"type": "Point", "coordinates": [4.887765131787377, 52.3465453414415]}, "properties": {"totaal_bijplaatsingen": 1414, "aantal_handhavingen": 145, "adres": "Deurloostraat 108", "aantal_grofvuil": 661}}, {"type": "Feature", "geometry": {"type": "Point", "coordinates": [4.878040932177961, 52.39137070114072]}, "properties": {"totaal_bijplaatsingen": 1413, "aantal_handhavingen": 167, "adres": "Spaarndammerstraat 143A", "aantal_grofvuil": 498}}, {"type": "Feature", "geometry": {"type": "Point", "coordinates": [4.910465415563418, 52.34409057407628]}, "properties": {"totaal_bijplaatsingen": 1413, "aantal_handhavingen": 220, "adres": "Trompenburgstraat 4", "aantal_grofvuil": 762}}, {"type": "Feature", "geometry": {"type": "Point", "coordinates": [4.918138612052587, 52.40622840091995]}, "properties": {"totaal_bijplaatsingen": 1410, "aantal_handhavingen": 116, "adres": "Ankerplaats 22", "aantal_grofvuil": 798}}, {"type": "Feature", "geometry": {"type": "Point", "coordinates": [4.822575632436997, 52.38236264136065]}, "properties": {"totaal_bijplaatsingen": 1410, "aantal_handhavingen": 59, "adres": "David Vosstraat 59", "aantal_grofvuil": 938}}, {"type": "Feature", "geometry": {"type": "Point", "coordinates": [4.899062677746501, 52.35261342328679]}, "properties": {"totaal_bijplaatsingen": 1409, "aantal_handhavingen": 161, "adres": "Rustenburgerstraat 225", "aantal_grofvuil": 733}}, {"type": "Feature", "geometry": {"type": "Point", "coordinates": [4.887795132037132, 52.38020734119508]}, "properties": {"totaal_bijplaatsingen": 1405, "aantal_handhavingen": 496, "adres": "Prinsengracht 8", "aantal_grofvuil": 354}}, {"type": "Feature", "geometry": {"type": "Point", "coordinates": [4.926491205901204, 52.37944277350586]}, "properties": {"totaal_bijplaatsingen": 1402, "aantal_handhavingen": 165, "adres": "Sumatrakade 1157", "aantal_grofvuil": 477}}, {"type": "Feature", "geometry": {"type": "Point", "coordinates": [4.935814691611958, 52.36130644119983]}, "properties": {"totaal_bijplaatsingen": 1393, "aantal_handhavingen": 121, "adres": "Insulindeweg 55A", "aantal_grofvuil": 580}}, {"type": "Feature", "geometry": {"type": "Point", "coordinates": [4.904229131901111, 52.37498924118751]}, "properties": {"totaal_bijplaatsingen": 1385, "aantal_handhavingen": 302, "adres": "Prins Hendrikkade 55", "aantal_grofvuil": 423}}, {"type": "Feature", "geometry": {"type": "Point", "coordinates": [4.926269665214063, 52.36871078451716]}, "properties": {"totaal_bijplaatsingen": 1383, "aantal_handhavingen": 174, "adres": "Conradstraat 8", "aantal_grofvuil": 853}}, {"type": "Feature", "geometry": {"type": "Point", "coordinates": [4.944212012491768, 52.31863845298058]}, "properties": {"totaal_bijplaatsingen": 1379, "aantal_handhavingen": 104, "adres": "Boeninlaan 308", "aantal_grofvuil": 823}}, {"type": "Feature", "geometry": {"type": "Point", "coordinates": [4.916978531893961, 52.384141241084926]}, "properties": {"totaal_bijplaatsingen": 1364, "aantal_handhavingen": 89, "adres": "Bankwerkerij 177", "aantal_grofvuil": 347}}, {"type": "Feature", "geometry": {"type": "Point", "coordinates": [4.839239632235193, 52.36835614141648]}, "properties": {"totaal_bijplaatsingen": 1358, "aantal_handhavingen": 92, "adres": "Jan Voermanstraat 42", "aantal_grofvuil": 753}}, {"type": "Feature", "geometry": {"type": "Point", "coordinates": [4.875079431987557, 52.363444741353]}, "properties": {"totaal_bijplaatsingen": 1356, "aantal_handhavingen": 142, "adres": "Eerste Constantijn Huygensstraat 59", "aantal_grofvuil": 561}}, {"type": "Feature", "geometry": {"type": "Point", "coordinates": [4.913244732093554, 52.40783264092197]}, "properties": {"totaal_bijplaatsingen": 1342, "aantal_handhavingen": 57, "adres": "Banne Buikslootlaan 97", "aantal_grofvuil": 679}}, {"type": "Feature", "geometry": {"type": "Point", "coordinates": [4.898264646639467, 52.36504222496245]}, "properties": {"totaal_bijplaatsingen": 1337, "aantal_handhavingen": 433, "adres": "Herengracht 564", "aantal_grofvuil": 275}}, {"type": "Feature", "geometry": {"type": "Point", "coordinates": [4.854417632264484, 52.38431884125797]}, "properties": {"totaal_bijplaatsingen": 1337, "aantal_handhavingen": 112, "adres": "Solebaystraat 77", "aantal_grofvuil": 833}}, {"type": "Feature", "geometry": {"type": "Point", "coordinates": [4.992097791264361, 52.35965435105489]}, "properties": {"totaal_bijplaatsingen": 1336, "aantal_handhavingen": 102, "adres": "Erich Salomonstraat 49", "aantal_grofvuil": 597}}, {"type": "Feature", "geometry": {"type": "Point", "coordinates": [4.906428166278882, 52.388820843490734]}, "properties": {"totaal_bijplaatsingen": 1334, "aantal_handhavingen": 42, "adres": "Ranonkelkade 27", "aantal_grofvuil": 517}}, {"type": "Feature", "geometry": {"type": "Point", "coordinates": [4.9626364616857, 52.39248784089582]}, "properties": {"totaal_bijplaatsingen": 1331, "aantal_handhavingen": 78, "adres": "Waalenburgsingel 159", "aantal_grofvuil": 652}}, {"type": "Feature", "geometry": {"type": "Point", "coordinates": [4.993518192507954, 52.35940023210557]}, "properties": {"totaal_bijplaatsingen": 1328, "aantal_handhavingen": 133, "adres": "Daguerrestraat 119", "aantal_grofvuil": 577}}, {"type": "Feature", "geometry": {"type": "Point", "coordinates": [4.891599532552459, 52.36632890887848]}, "properties": {"totaal_bijplaatsingen": 1321, "aantal_handhavingen": 192, "adres": "Reguliersdwarsstraat & Geelvincksteeg", "aantal_grofvuil": 403}}, {"type": "Feature", "geometry": {"type": "Point", "coordinates": [4.909000265731727, 52.354242643946186]}, "properties": {"totaal_bijplaatsingen": 1317, "aantal_handhavingen": 146, "adres": "Weesperzijde 63", "aantal_grofvuil": 703}}, {"type": "Feature", "geometry": {"type": "Point", "coordinates": [4.955537491199061, 52.3214519914382]}, "properties": {"totaal_bijplaatsingen": 1311, "aantal_handhavingen": 178, "adres": "Darlingstraat 785", "aantal_grofvuil": 703}}, {"type": "Feature", "geometry": {"type": "Point", "coordinates": [4.909563416229252, 52.38797904348458]}, "properties": {"totaal_bijplaatsingen": 1308, "aantal_handhavingen": 59, "adres": "Jasmijnstraat 40", "aantal_grofvuil": 675}}, {"type": "Feature", "geometry": {"type": "Point", "coordinates": [4.836095232171815, 52.35729344150586]}, "properties": {"totaal_bijplaatsingen": 1303, "aantal_handhavingen": 193, "adres": "Willem Frogerstraat 10", "aantal_grofvuil": 689}}, {"type": "Feature", "geometry": {"type": "Point", "coordinates": [4.960674331699923, 52.392829240898784]}, "properties": {"totaal_bijplaatsingen": 1285, "aantal_handhavingen": 87, "adres": "Volendammerweg 212", "aantal_grofvuil": 632}}, {"type": "Feature", "geometry": {"type": "Point", "coordinates": [5.004643651154487, 52.35498284105428]}, "properties": {"totaal_bijplaatsingen": 1285, "aantal_handhavingen": 153, "adres": "Bert Haanstrakade 558", "aantal_grofvuil": 602}}, {"type": "Feature", "geometry": {"type": "Point", "coordinates": [4.815767642439524, 52.37732314141622]}, "properties": {"totaal_bijplaatsingen": 1277, "aantal_handhavingen": 55, "adres": "Karel van de Woestijnestraat 1", "aantal_grofvuil": 428}}, {"type": "Feature", "geometry": {"type": "Point", "coordinates": [4.902989501661736, 52.341753441434456]}, "properties": {"totaal_bijplaatsingen": 1273, "aantal_handhavingen": 121, "adres": "Kinderdijkstraat 55", "aantal_grofvuil": 664}}, {"type": "Feature", "geometry": {"type": "Point", "coordinates": [4.920176926451124, 52.41104687311204]}, "properties": {"totaal_bijplaatsingen": 1272, "aantal_handhavingen": 73, "adres": "Zeevaarthof 109", "aantal_grofvuil": 766}}, {"type": "Feature", "geometry": {"type": "Point", "coordinates": [4.914933085554353, 52.34704174401128]}, "properties": {"totaal_bijplaatsingen": 1272, "aantal_handhavingen": 72, "adres": "Van der Kunstraat 5", "aantal_grofvuil": 625}}, {"type": "Feature", "geometry": {"type": "Point", "coordinates": [5.004361861121215, 52.35029589108964]}, "properties": {"totaal_bijplaatsingen": 1267, "aantal_handhavingen": 83, "adres": "Emmy Andriessestraat 22", "aantal_grofvuil": 425}}, {"type": "Feature", "geometry": {"type": "Point", "coordinates": [4.854882266342948, 52.3796852829018]}, "properties": {"totaal_bijplaatsingen": 1266, "aantal_handhavingen": 124, "adres": "Vier Heemskinderenstraat 50", "aantal_grofvuil": 613}}, {"type": "Feature", "geometry": {"type": "Point", "coordinates": [4.943986152510156, 52.31970281296617]}, "properties": {"totaal_bijplaatsingen": 1263, "aantal_handhavingen": 83, "adres": "Alfred D\u00f6blinstraat 84", "aantal_grofvuil": 808}}, {"type": "Feature", "geometry": {"type": "Point", "coordinates": [4.956556784540022, 52.311998494258894]}, "properties": {"totaal_bijplaatsingen": 1262, "aantal_handhavingen": 65, "adres": "Hofgeest 146", "aantal_grofvuil": 607}}, {"type": "Feature", "geometry": {"type": "Point", "coordinates": [4.914829631961315, 52.39144654103742]}, "properties": {"totaal_bijplaatsingen": 1261, "aantal_handhavingen": 76, "adres": "Mosveld 24", "aantal_grofvuil": 521}}, {"type": "Feature", "geometry": {"type": "Point", "coordinates": [4.954004264544803, 52.31026253429677]}, "properties": {"totaal_bijplaatsingen": 1252, "aantal_handhavingen": 62, "adres": "Hoptille 151", "aantal_grofvuil": 715}}, {"type": "Feature", "geometry": {"type": "Point", "coordinates": [4.976573664392115, 52.31814469406367]}, "properties": {"totaal_bijplaatsingen": 1238, "aantal_handhavingen": 109, "adres": "Kruitberg 3021", "aantal_grofvuil": 781}}, {"type": "Feature", "geometry": {"type": "Point", "coordinates": [4.847263832228543, 52.37382374135439]}, "properties": {"totaal_bijplaatsingen": 1234, "aantal_handhavingen": 107, "adres": "Orteliusstraat 328", "aantal_grofvuil": 593}}, {"type": "Feature", "geometry": {"type": "Point", "coordinates": [4.935298721896015, 52.3988983709255]}, "properties": {"totaal_bijplaatsingen": 1233, "aantal_handhavingen": 64, "adres": "Buikslotermeerplein 142", "aantal_grofvuil": 439}}, {"type": "Feature", "geometry": {"type": "Point", "coordinates": [4.9049671316586645, 52.34292374142038]}, "properties": {"totaal_bijplaatsingen": 1231, "aantal_handhavingen": 111, "adres": "Hunzestraat 73", "aantal_grofvuil": 545}}, {"type": "Feature", "geometry": {"type": "Point", "coordinates": [4.910636075163234, 52.38765569494]}, "properties": {"totaal_bijplaatsingen": 1230, "aantal_handhavingen": 43, "adres": "Meidoornplein 13", "aantal_grofvuil": 658}}, {"type": "Feature", "geometry": {"type": "Point", "coordinates": [4.907146921695803, 52.349685661364745]}, "properties": {"totaal_bijplaatsingen": 1225, "aantal_handhavingen": 85, "adres": "Jozef Isra\u00eblskade 415", "aantal_grofvuil": 605}}, {"type": "Feature", "geometry": {"type": "Point", "coordinates": [4.859725166614825, 52.37450210394543]}, "properties": {"totaal_bijplaatsingen": 1224, "aantal_handhavingen": 63, "adres": "Bestev\u00e2erstraat 62", "aantal_grofvuil": 642}}, {"type": "Feature", "geometry": {"type": "Point", "coordinates": [4.910075265746165, 52.35606670391539]}, "properties": {"totaal_bijplaatsingen": 1220, "aantal_handhavingen": 138, "adres": "Eerste Oosterparkstraat 50", "aantal_grofvuil": 671}}, {"type": "Feature", "geometry": {"type": "Point", "coordinates": [4.890905411051705, 52.41728271672117]}, "properties": {"totaal_bijplaatsingen": 1211, "aantal_handhavingen": 62, "adres": "Tjasker 1", "aantal_grofvuil": 498}}, {"type": "Feature", "geometry": {"type": "Point", "coordinates": [4.900733825621063, 52.34021092418306]}, "properties": {"totaal_bijplaatsingen": 1209, "aantal_handhavingen": 188, "adres": "President Kennedylaan 17", "aantal_grofvuil": 519}}, {"type": "Feature", "geometry": {"type": "Point", "coordinates": [4.832575246607314, 52.3525260443934]}, "properties": {"totaal_bijplaatsingen": 1192, "aantal_handhavingen": 183, "adres": "Jacques Veltmanstraat 1083", "aantal_grofvuil": 431}}, {"type": "Feature", "geometry": {"type": "Point", "coordinates": [4.804113021464717, 52.35729886211471]}, "properties": {"totaal_bijplaatsingen": 1190, "aantal_handhavingen": 115, "adres": "Jan Celestraat 1 (grof hoek)", "aantal_grofvuil": 646}}, {"type": "Feature", "geometry": {"type": "Point", "coordinates": [4.828962746587119, 52.34829519447064]}, "properties": {"totaal_bijplaatsingen": 1185, "aantal_handhavingen": 132, "adres": "Helena Mercierstraat 2", "aantal_grofvuil": 604}}, {"type": "Feature", "geometry": {"type": "Point", "coordinates": [4.944492534863201, 52.32412273415987]}, "properties": {"totaal_bijplaatsingen": 1181, "aantal_handhavingen": 52, "adres": "Charlotte Bront\u00e9straat 24", "aantal_grofvuil": 596}}, {"type": "Feature", "geometry": {"type": "Point", "coordinates": [4.869366002044999, 52.366640691345474]}, "properties": {"totaal_bijplaatsingen": 1176, "aantal_handhavingen": 159, "adres": "Kinkerstraat 136", "aantal_grofvuil": 678}}, {"type": "Feature", "geometry": {"type": "Point", "coordinates": [4.9035100666329, 52.41007484321894]}, "properties": {"totaal_bijplaatsingen": 1175, "aantal_handhavingen": 48, "adres": "Boomgaardlaan 87", "aantal_grofvuil": 606}}, {"type": "Feature", "geometry": {"type": "Point", "coordinates": [4.85404063212948, 52.36584914139381]}, "properties": {"totaal_bijplaatsingen": 1160, "aantal_handhavingen": 82, "adres": "Hudsonstraat 45", "aantal_grofvuil": 553}}, {"type": "Feature", "geometry": {"type": "Point", "coordinates": [4.82056521245124, 52.38269246136388]}, "properties": {"totaal_bijplaatsingen": 1157, "aantal_handhavingen": 58, "adres": "Nieuwenhuysenstraat 31", "aantal_grofvuil": 762}}, {"type": "Feature", "geometry": {"type": "Point", "coordinates": [4.881616522149364, 52.39036404113809]}, "properties": {"totaal_bijplaatsingen": 1154, "aantal_handhavingen": 126, "adres": "Nova Zemblastraat 373", "aantal_grofvuil": 700}}, {"type": "Feature", "geometry": {"type": "Point", "coordinates": [4.903627861754648, 52.35481028133698]}, "properties": {"totaal_bijplaatsingen": 1153, "aantal_handhavingen": 126, "adres": "Sint Willibrordusstraat 31", "aantal_grofvuil": 502}}, {"type": "Feature", "geometry": {"type": "Point", "coordinates": [4.806569452512375, 52.379876831423104]}, "properties": {"totaal_bijplaatsingen": 1147, "aantal_handhavingen": 129, "adres": "Dr. H. Colijnstraat 176", "aantal_grofvuil": 513}}, {"type": "Feature", "geometry": {"type": "Point", "coordinates": [4.86870863207582, 52.3702695413208]}, "properties": {"totaal_bijplaatsingen": 1146, "aantal_handhavingen": 72, "adres": "Bilderdijkkade 11", "aantal_grofvuil": 463}}, {"type": "Feature", "geometry": {"type": "Point", "coordinates": [4.836475412206473, 52.36228236146842]}, "properties": {"totaal_bijplaatsingen": 1143, "aantal_handhavingen": 55, "adres": "Jan Tooropstraat 15A", "aantal_grofvuil": 424}}, {"type": "Feature", "geometry": {"type": "Point", "coordinates": [4.914622242087828, 52.40815368091575]}, "properties": {"totaal_bijplaatsingen": 1141, "aantal_handhavingen": 84, "adres": "Bezaanjachtplein 20", "aantal_grofvuil": 640}}, {"type": "Feature", "geometry": {"type": "Point", "coordinates": [4.86198501665939, 52.37926929386832]}, "properties": {"totaal_bijplaatsingen": 1133, "aantal_handhavingen": 124, "adres": "Willem de Zwijgerlaan 269", "aantal_grofvuil": 526}}, {"type": "Feature", "geometry": {"type": "Point", "coordinates": [4.872712864194002, 52.37629548253136]}, "properties": {"totaal_bijplaatsingen": 1130, "aantal_handhavingen": 104, "adres": "Eerste Hugo de Grootstraat 35", "aantal_grofvuil": 783}}, {"type": "Feature", "geometry": {"type": "Point", "coordinates": [4.96074550168266, 52.39058582091509]}, "properties": {"totaal_bijplaatsingen": 1118, "aantal_handhavingen": 86, "adres": "Hilversumstraat 115", "aantal_grofvuil": 618}}, {"type": "Feature", "geometry": {"type": "Point", "coordinates": [4.9486121644161365, 52.32477145318549]}, "properties": {"totaal_bijplaatsingen": 1118, "aantal_handhavingen": 77, "adres": "Dani\u00ebl Defoelaan 164", "aantal_grofvuil": 679}}, {"type": "Feature", "geometry": {"type": "Point", "coordinates": [4.782219532489571, 52.35750124165293]}, "properties": {"totaal_bijplaatsingen": 1117, "aantal_handhavingen": 39, "adres": "Hoogheemraadweg 25", "aantal_grofvuil": 525}}, {"type": "Feature", "geometry": {"type": "Point", "coordinates": [4.820189644859429, 52.3794969427763]}, "properties": {"totaal_bijplaatsingen": 1112, "aantal_handhavingen": 56, "adres": "Slotermeerlaan 103", "aantal_grofvuil": 435}}, {"type": "Feature", "geometry": {"type": "Point", "coordinates": [4.83132083237343, 52.380714641348426]}, "properties": {"totaal_bijplaatsingen": 1108, "aantal_handhavingen": 68, "adres": "De Tourton Bruynsstraat 3", "aantal_grofvuil": 583}}, {"type": "Feature", "geometry": {"type": "Point", "coordinates": [4.911909595743042, 52.35731398388824]}, "properties": {"totaal_bijplaatsingen": 1094, "aantal_handhavingen": 120, "adres": "Blasiusstraat 93", "aantal_grofvuil": 629}}, {"type": "Feature", "geometry": {"type": "Point", "coordinates": [4.882347143355705, 52.327351853194216]}, "properties": {"totaal_bijplaatsingen": 1089, "aantal_handhavingen": 161, "adres": "Van Heenvlietlaan 202", "aantal_grofvuil": 497}}, {"type": "Feature", "geometry": {"type": "Point", "coordinates": [4.914075116442876, 52.4057277632185]}, "properties": {"totaal_bijplaatsingen": 1084, "aantal_handhavingen": 45, "adres": "Dekschuitstraat 101", "aantal_grofvuil": 662}}, {"type": "Feature", "geometry": {"type": "Point", "coordinates": [4.915963621687651, 52.355636341296645]}, "properties": {"totaal_bijplaatsingen": 1084, "aantal_handhavingen": 140, "adres": "Vrolikstraat 247C", "aantal_grofvuil": 521}}, {"type": "Feature", "geometry": {"type": "Point", "coordinates": [4.853508642022284, 52.35094131150411]}, "properties": {"totaal_bijplaatsingen": 1082, "aantal_handhavingen": 106, "adres": "Zeilstraat 54", "aantal_grofvuil": 564}}, {"type": "Feature", "geometry": {"type": "Point", "coordinates": [4.791335067201451, 52.360009184520266]}, "properties": {"totaal_bijplaatsingen": 1082, "aantal_handhavingen": 82, "adres": "Osdorper Ban 953", "aantal_grofvuil": 600}}, {"type": "Feature", "geometry": {"type": "Point", "coordinates": [4.919082631865004, 52.3819330410952]}, "properties": {"totaal_bijplaatsingen": 1081, "aantal_handhavingen": 79, "adres": "Motorwal 10", "aantal_grofvuil": 583}}, {"type": "Feature", "geometry": {"type": "Point", "coordinates": [4.842773632304441, 52.38048534131824]}, "properties": {"totaal_bijplaatsingen": 1080, "aantal_handhavingen": 42, "adres": "De Schaapherderstraat 19", "aantal_grofvuil": 510}}, {"type": "Feature", "geometry": {"type": "Point", "coordinates": [4.800312522522151, 52.37625174146676]}, "properties": {"totaal_bijplaatsingen": 1079, "aantal_handhavingen": 46, "adres": "Nolensstraat 23", "aantal_grofvuil": 478}}, {"type": "Feature", "geometry": {"type": "Point", "coordinates": [4.918339966107898, 52.38679894345147]}, "properties": {"totaal_bijplaatsingen": 1076, "aantal_handhavingen": 76, "adres": "Zwanenplein 19", "aantal_grofvuil": 599}}, {"type": "Feature", "geometry": {"type": "Point", "coordinates": [4.865625521928264, 52.34789501149288]}, "properties": {"totaal_bijplaatsingen": 1076, "aantal_handhavingen": 56, "adres": "Olympiaplein 82", "aantal_grofvuil": 327}}, {"type": "Feature", "geometry": {"type": "Point", "coordinates": [4.852160364265615, 52.36480358281317]}, "properties": {"totaal_bijplaatsingen": 1075, "aantal_handhavingen": 101, "adres": "Van Spilbergenstraat 11", "aantal_grofvuil": 599}}, {"type": "Feature", "geometry": {"type": "Point", "coordinates": [4.896847431709535, 52.3432934414402]}, "properties": {"totaal_bijplaatsingen": 1074, "aantal_handhavingen": 96, "adres": "Rooseveltlaan 186", "aantal_grofvuil": 428}}, {"type": "Feature", "geometry": {"type": "Point", "coordinates": [4.89793993192118, 52.37268934122182]}, "properties": {"totaal_bijplaatsingen": 1069, "aantal_handhavingen": 104, "adres": "Oudezijds Achterburgwal 104", "aantal_grofvuil": 321}}, {"type": "Feature", "geometry": {"type": "Point", "coordinates": [4.924062031745655, 52.36989194116956]}, "properties": {"totaal_bijplaatsingen": 1068, "aantal_handhavingen": 73, "adres": "Oostenburgervoorstraat 28", "aantal_grofvuil": 413}}, {"type": "Feature", "geometry": {"type": "Point", "coordinates": [4.917611562063576, 52.40727644091382]}, "properties": {"totaal_bijplaatsingen": 1067, "aantal_handhavingen": 33, "adres": "Banneplein 51", "aantal_grofvuil": 657}}, {"type": "Feature", "geometry": {"type": "Point", "coordinates": [4.8712273319466695, 52.35485744142648]}, "properties": {"totaal_bijplaatsingen": 1066, "aantal_handhavingen": 78, "adres": "Cornelis Schuytstraat 34", "aantal_grofvuil": 495}}, {"type": "Feature", "geometry": {"type": "Point", "coordinates": [4.831379212231237, 52.36157804148768]}, "properties": {"totaal_bijplaatsingen": 1064, "aantal_handhavingen": 48, "adres": "Jacob Geelstraat 25", "aantal_grofvuil": 393}}, {"type": "Feature", "geometry": {"type": "Point", "coordinates": [4.927709338110947, 52.33644521650192]}, "properties": {"totaal_bijplaatsingen": 1064, "aantal_handhavingen": 66, "adres": "H.J.E. Wenckebachweg 6", "aantal_grofvuil": 585}}, {"type": "Feature", "geometry": {"type": "Point", "coordinates": [4.916089351691267, 52.356223901291976]}, "properties": {"totaal_bijplaatsingen": 1061, "aantal_handhavingen": 121, "adres": "Derde Oosterparkstraat 64", "aantal_grofvuil": 583}}, {"type": "Feature", "geometry": {"type": "Point", "coordinates": [4.862121266389675, 52.36127439411124]}, "properties": {"totaal_bijplaatsingen": 1060, "aantal_handhavingen": 130, "adres": "Wilhelminastraat 121", "aantal_grofvuil": 605}}, {"type": "Feature", "geometry": {"type": "Point", "coordinates": [4.98410414087687, 52.30093182151065]}, "properties": {"totaal_bijplaatsingen": 1051, "aantal_handhavingen": 82, "adres": "Vianenstraat 2", "aantal_grofvuil": 457}}, {"type": "Feature", "geometry": {"type": "Point", "coordinates": [4.831530566787476, 52.36384674424608]}, "properties": {"totaal_bijplaatsingen": 1049, "aantal_handhavingen": 73, "adres": "Robert Fruinlaan 8", "aantal_grofvuil": 492}}, {"type": "Feature", "geometry": {"type": "Point", "coordinates": [4.913357831991411, 52.39430414102062]}, "properties": {"totaal_bijplaatsingen": 1049, "aantal_handhavingen": 56, "adres": "Heggerankweg 2", "aantal_grofvuil": 487}}, {"type": "Feature", "geometry": {"type": "Point", "coordinates": [4.989502013901417, 52.29542530430386]}, "properties": {"totaal_bijplaatsingen": 1048, "aantal_handhavingen": 75, "adres": "Wethouder De Roosplein 47", "aantal_grofvuil": 628}}, {"type": "Feature", "geometry": {"type": "Point", "coordinates": [4.918315791687744, 52.35752794127621]}, "properties": {"totaal_bijplaatsingen": 1032, "aantal_handhavingen": 98, "adres": "Tweede Oosterparkstraat 135A", "aantal_grofvuil": 467}}, {"type": "Feature", "geometry": {"type": "Point", "coordinates": [4.911058592079903, 52.404295170954015]}, "properties": {"totaal_bijplaatsingen": 1030, "aantal_handhavingen": 64, "adres": "Klipperstraat 1", "aantal_grofvuil": 630}}, {"type": "Feature", "geometry": {"type": "Point", "coordinates": [4.925612523821003, 52.35583415243908]}, "properties": {"totaal_bijplaatsingen": 1027, "aantal_handhavingen": 111, "adres": "Pretoriusstraat 33", "aantal_grofvuil": 410}}, {"type": "Feature", "geometry": {"type": "Point", "coordinates": [4.908402231665155, 52.34655354138423]}, "properties": {"totaal_bijplaatsingen": 1023, "aantal_handhavingen": 116, "adres": "Vrijheidslaan 43", "aantal_grofvuil": 474}}, {"type": "Feature", "geometry": {"type": "Point", "coordinates": [4.944845631584202, 52.36478484114907]}, "properties": {"totaal_bijplaatsingen": 1019, "aantal_handhavingen": 77, "adres": "Niasstraat 54A", "aantal_grofvuil": 424}}, {"type": "Feature", "geometry": {"type": "Point", "coordinates": [4.9297659251097325, 52.40109992105416]}, "properties": {"totaal_bijplaatsingen": 1017, "aantal_handhavingen": 98, "adres": "Elzenhagensingel 857", "aantal_grofvuil": 581}}, {"type": "Feature", "geometry": {"type": "Point", "coordinates": [4.965134265291328, 52.36932526342736]}, "properties": {"totaal_bijplaatsingen": 1015, "aantal_handhavingen": 108, "adres": "Zuiderzeeweg 18", "aantal_grofvuil": 725}}, {"type": "Feature", "geometry": {"type": "Point", "coordinates": [4.8496251664770655, 52.35725851423496]}, "properties": {"totaal_bijplaatsingen": 1006, "aantal_handhavingen": 116, "adres": "Andreas Schelfhoutstraat 65", "aantal_grofvuil": 553}}, {"type": "Feature", "geometry": {"type": "Point", "coordinates": [4.9306939319497545, 52.40242444091261]}, "properties": {"totaal_bijplaatsingen": 1003, "aantal_handhavingen": 160, "adres": "Elzenhagensingel 373", "aantal_grofvuil": 596}}, {"type": "Feature", "geometry": {"type": "Point", "coordinates": [4.988755420834348, 52.29894446151248]}, "properties": {"totaal_bijplaatsingen": 1000, "aantal_handhavingen": 60, "adres": "Wamelplein 169", "aantal_grofvuil": 559}}, {"type": "Feature", "geometry": {"type": "Point", "coordinates": [4.846444532246228, 52.37555614134403]}, "properties": {"totaal_bijplaatsingen": 997, "aantal_handhavingen": 84, "adres": "Bos en Lommerplantsoen 12", "aantal_grofvuil": 692}}, {"type": "Feature", "geometry": {"type": "Point", "coordinates": [4.813350167159472, 52.37454074420255]}, "properties": {"totaal_bijplaatsingen": 995, "aantal_handhavingen": 51, "adres": "Socratesstraat 26", "aantal_grofvuil": 567}}, {"type": "Feature", "geometry": {"type": "Point", "coordinates": [4.874023114152008, 52.37451183255009]}, "properties": {"totaal_bijplaatsingen": 986, "aantal_handhavingen": 73, "adres": "Van Oldenbarneveldtstraat 80", "aantal_grofvuil": 475}}, {"type": "Feature", "geometry": {"type": "Point", "coordinates": [4.830243972152834, 52.350058801574775]}, "properties": {"totaal_bijplaatsingen": 979, "aantal_handhavingen": 99, "adres": "Elisabeth Boddaertstraat 20", "aantal_grofvuil": 435}}, {"type": "Feature", "geometry": {"type": "Point", "coordinates": [4.839108066225121, 52.359285533287256]}, "properties": {"totaal_bijplaatsingen": 978, "aantal_handhavingen": 59, "adres": "Johan Jongkindstraat 5", "aantal_grofvuil": 382}}, {"type": "Feature", "geometry": {"type": "Point", "coordinates": [4.86355834192525, 52.345833601513625]}, "properties": {"totaal_bijplaatsingen": 977, "aantal_handhavingen": 83, "adres": "Stadionweg 175", "aantal_grofvuil": 526}}, {"type": "Feature", "geometry": {"type": "Point", "coordinates": [4.903149831768294, 52.35626774132756]}, "properties": {"totaal_bijplaatsingen": 976, "aantal_handhavingen": 94, "adres": "Tweede Jan van der Heijdenstraat 79", "aantal_grofvuil": 530}}, {"type": "Feature", "geometry": {"type": "Point", "coordinates": [4.89131873184217, 52.35678404135668]}, "properties": {"totaal_bijplaatsingen": 973, "aantal_handhavingen": 62, "adres": "Quellijnstraat 86", "aantal_grofvuil": 433}}, {"type": "Feature", "geometry": {"type": "Point", "coordinates": [4.955003631727537, 52.39202174092066]}, "properties": {"totaal_bijplaatsingen": 969, "aantal_handhavingen": 81, "adres": "Waterlandplein 271", "aantal_grofvuil": 507}}, {"type": "Feature", "geometry": {"type": "Point", "coordinates": [4.930025411660126, 52.36315885120231]}, "properties": {"totaal_bijplaatsingen": 967, "aantal_handhavingen": 110, "adres": "Eerste Van Swindenstraat 132", "aantal_grofvuil": 341}}, {"type": "Feature", "geometry": {"type": "Point", "coordinates": [4.909661405771948, 52.3574687638986]}, "properties": {"totaal_bijplaatsingen": 963, "aantal_handhavingen": 88, "adres": "Ruyschstraat 45", "aantal_grofvuil": 442}}, {"type": "Feature", "geometry": {"type": "Point", "coordinates": [4.986791990823811, 52.2959112015403]}, "properties": {"totaal_bijplaatsingen": 963, "aantal_handhavingen": 59, "adres": "Wisseloord 83", "aantal_grofvuil": 460}}, {"type": "Feature", "geometry": {"type": "Point", "coordinates": [4.883606832048642, 52.37843364121972]}, "properties": {"totaal_bijplaatsingen": 961, "aantal_handhavingen": 415, "adres": "Tuinstraat", "aantal_grofvuil": 274}}, {"type": "Feature", "geometry": {"type": "Point", "coordinates": [4.919848125889721, 52.37342853362476]}, "properties": {"totaal_bijplaatsingen": 961, "aantal_handhavingen": 62, "adres": "Kattenburgerstraat 176", "aantal_grofvuil": 413}}, {"type": "Feature", "geometry": {"type": "Point", "coordinates": [4.879994731981476, 52.36653534131678]}, "properties": {"totaal_bijplaatsingen": 961, "aantal_handhavingen": 433, "adres": "Raamplein 1", "aantal_grofvuil": 506}}, {"type": "Feature", "geometry": {"type": "Point", "coordinates": [4.890386631827419, 52.35404974137928]}, "properties": {"totaal_bijplaatsingen": 959, "aantal_handhavingen": 59, "adres": "Eerste Jan Steenstraat 85", "aantal_grofvuil": 338}}, {"type": "Feature", "geometry": {"type": "Point", "coordinates": [4.998221941189489, 52.35452619107559]}, "properties": {"totaal_bijplaatsingen": 956, "aantal_handhavingen": 91, "adres": "Kiekstraat 22", "aantal_grofvuil": 470}}, {"type": "Feature", "geometry": {"type": "Point", "coordinates": [4.865676796026501, 52.3669829230272]}, "properties": {"totaal_bijplaatsingen": 953, "aantal_handhavingen": 132, "adres": "Bellamystraat 35", "aantal_grofvuil": 532}}, {"type": "Feature", "geometry": {"type": "Point", "coordinates": [4.847655532066195, 52.35221364151099]}, "properties": {"totaal_bijplaatsingen": 950, "aantal_handhavingen": 96, "adres": "Hillegomstraat 35", "aantal_grofvuil": 450}}, {"type": "Feature", "geometry": {"type": "Point", "coordinates": [4.91581203210713, 52.41165614088683]}, "properties": {"totaal_bijplaatsingen": 949, "aantal_handhavingen": 45, "adres": "Voordek 41", "aantal_grofvuil": 452}}, {"type": "Feature", "geometry": {"type": "Point", "coordinates": [4.842626132319211, 52.38235564130505]}, "properties": {"totaal_bijplaatsingen": 947, "aantal_handhavingen": 28, "adres": "Ferdinand Huyckstraat 11", "aantal_grofvuil": 421}}, {"type": "Feature", "geometry": {"type": "Point", "coordinates": [4.915027731905697, 52.38416674109015]}, "properties": {"totaal_bijplaatsingen": 946, "aantal_handhavingen": 49, "adres": "Spreeuwenpark 36C", "aantal_grofvuil": 368}}, {"type": "Feature", "geometry": {"type": "Point", "coordinates": [4.792051332477541, 52.363676141581]}, "properties": {"totaal_bijplaatsingen": 942, "aantal_handhavingen": 40, "adres": "Ookmeerweg 248", "aantal_grofvuil": 321}}, {"type": "Feature", "geometry": {"type": "Point", "coordinates": [4.841718122309826, 52.38037518132205]}, "properties": {"totaal_bijplaatsingen": 933, "aantal_handhavingen": 43, "adres": "Akbarstraat 50", "aantal_grofvuil": 433}}, {"type": "Feature", "geometry": {"type": "Point", "coordinates": [4.847836666885704, 52.38329584389268]}, "properties": {"totaal_bijplaatsingen": 929, "aantal_handhavingen": 64, "adres": "Sara Burgerhartstraat 62", "aantal_grofvuil": 562}}, {"type": "Feature", "geometry": {"type": "Point", "coordinates": [4.959349641071909, 52.30729408153207]}, "properties": {"totaal_bijplaatsingen": 914, "aantal_handhavingen": 56, "adres": "Huigenbos 121", "aantal_grofvuil": 394}}, {"type": "Feature", "geometry": {"type": "Point", "coordinates": [4.871847616284984, 52.36193829404824]}, "properties": {"totaal_bijplaatsingen": 906, "aantal_handhavingen": 141, "adres": "Overtoom 200", "aantal_grofvuil": 332}}, {"type": "Feature", "geometry": {"type": "Point", "coordinates": [4.85092643226733, 52.38194184128502]}, "properties": {"totaal_bijplaatsingen": 903, "aantal_handhavingen": 71, "adres": "Wiltzanghlaan 7", "aantal_grofvuil": 441}}, {"type": "Feature", "geometry": {"type": "Point", "coordinates": [4.926578131680124, 52.36309674121237]}, "properties": {"totaal_bijplaatsingen": 903, "aantal_handhavingen": 63, "adres": "Wagenaarstraat 232", "aantal_grofvuil": 402}}, {"type": "Feature", "geometry": {"type": "Point", "coordinates": [4.990510931276831, 52.360055251056366]}, "properties": {"totaal_bijplaatsingen": 902, "aantal_handhavingen": 131, "adres": "Piet Zwarthof 1", "aantal_grofvuil": 508}}, {"type": "Feature", "geometry": {"type": "Point", "coordinates": [4.9219147661085, 52.38965244339271]}, "properties": {"totaal_bijplaatsingen": 900, "aantal_handhavingen": 56, "adres": "Adelaarsweg 120", "aantal_grofvuil": 440}}, {"type": "Feature", "geometry": {"type": "Point", "coordinates": [4.911613812093071, 52.40648592093636]}, "properties": {"totaal_bijplaatsingen": 900, "aantal_handhavingen": 63, "adres": "Botterstraat 186", "aantal_grofvuil": 406}}, {"type": "Feature", "geometry": {"type": "Point", "coordinates": [4.929546331773143, 52.37793572109526]}, "properties": {"totaal_bijplaatsingen": 889, "aantal_handhavingen": 5, "adres": "Javakade 204", "aantal_grofvuil": 61}}, {"type": "Feature", "geometry": {"type": "Point", "coordinates": [4.8992787319021005, 52.37118994122904]}, "properties": {"totaal_bijplaatsingen": 888, "aantal_handhavingen": 157, "adres": "Kloveniersburgwal 31", "aantal_grofvuil": 274}}, {"type": "Feature", "geometry": {"type": "Point", "coordinates": [4.871459595482141, 52.33488576346466]}, "properties": {"totaal_bijplaatsingen": 886, "aantal_handhavingen": 169, "adres": "De Boelelaan 1017", "aantal_grofvuil": 405}}, {"type": "Feature", "geometry": {"type": "Point", "coordinates": [4.901905631662641, 52.34100614144296]}, "properties": {"totaal_bijplaatsingen": 886, "aantal_handhavingen": 124, "adres": "Waalstraat 165", "aantal_grofvuil": 504}}, {"type": "Feature", "geometry": {"type": "Point", "coordinates": [4.965175693067942, 52.37425377204544]}, "properties": {"totaal_bijplaatsingen": 885, "aantal_handhavingen": 74, "adres": "Rie Mastenbroekstraat 55", "aantal_grofvuil": 517}}, {"type": "Feature", "geometry": {"type": "Point", "coordinates": [4.878781532070343, 52.37752384123975]}, "properties": {"totaal_bijplaatsingen": 880, "aantal_handhavingen": 246, "adres": "Rozengracht 3", "aantal_grofvuil": 479}}, {"type": "Feature", "geometry": {"type": "Point", "coordinates": [4.834836332219343, 52.36271854146978]}, "properties": {"totaal_bijplaatsingen": 875, "aantal_handhavingen": 76, "adres": "Marius Bauerstraat 401A", "aantal_grofvuil": 460}}, {"type": "Feature", "geometry": {"type": "Point", "coordinates": [4.8551349441071565, 52.35647133291845]}, "properties": {"totaal_bijplaatsingen": 874, "aantal_handhavingen": 103, "adres": "Zocherstraat 70", "aantal_grofvuil": 498}}, {"type": "Feature", "geometry": {"type": "Point", "coordinates": [4.939553784734569, 52.35986078999505]}, "properties": {"totaal_bijplaatsingen": 873, "aantal_handhavingen": 45, "adres": "Halmaheirastraat 28", "aantal_grofvuil": 488}}, {"type": "Feature", "geometry": {"type": "Point", "coordinates": [4.919319831912253, 52.38844084104689]}, "properties": {"totaal_bijplaatsingen": 869, "aantal_handhavingen": 66, "adres": "Adelaarsweg 105", "aantal_grofvuil": 494}}, {"type": "Feature", "geometry": {"type": "Point", "coordinates": [4.9528592945794845, 52.311685504283616]}, "properties": {"totaal_bijplaatsingen": 869, "aantal_handhavingen": 89, "adres": "Haardstee 82", "aantal_grofvuil": 586}}, {"type": "Feature", "geometry": {"type": "Point", "coordinates": [4.903330141723441, 52.350362311370425]}, "properties": {"totaal_bijplaatsingen": 869, "aantal_handhavingen": 113, "adres": "Carillonstraat 8", "aantal_grofvuil": 505}}, {"type": "Feature", "geometry": {"type": "Point", "coordinates": [4.919470232108416, 52.41469924085427]}, "properties": {"totaal_bijplaatsingen": 866, "aantal_handhavingen": 29, "adres": "Achtersteven 41", "aantal_grofvuil": 478}}, {"type": "Feature", "geometry": {"type": "Point", "coordinates": [4.928684001687757, 52.36580084118668]}, "properties": {"totaal_bijplaatsingen": 864, "aantal_handhavingen": 79, "adres": "Roomtuintjes 71A", "aantal_grofvuil": 407}}, {"type": "Feature", "geometry": {"type": "Point", "coordinates": [4.903444631877251, 52.37116274121768]}, "properties": {"totaal_bijplaatsingen": 864, "aantal_handhavingen": 246, "adres": "Oudeschans 46C", "aantal_grofvuil": 282}}, {"type": "Feature", "geometry": {"type": "Point", "coordinates": [4.921901017942449, 52.40930823072397]}, "properties": {"totaal_bijplaatsingen": 862, "aantal_handhavingen": 47, "adres": "Grootzeil 161", "aantal_grofvuil": 509}}, {"type": "Feature", "geometry": {"type": "Point", "coordinates": [4.984228130996809, 52.31729432138937]}, "properties": {"totaal_bijplaatsingen": 858, "aantal_handhavingen": 122, "adres": "Kouwenoord 1078", "aantal_grofvuil": 691}}, {"type": "Feature", "geometry": {"type": "Point", "coordinates": [5.010076271092998, 52.35109957106774]}, "properties": {"totaal_bijplaatsingen": 857, "aantal_handhavingen": 77, "adres": "Marius Meijboomstraat 40", "aantal_grofvuil": 441}}, {"type": "Feature", "geometry": {"type": "Point", "coordinates": [4.914806572806147, 52.40410364603069]}, "properties": {"totaal_bijplaatsingen": 853, "aantal_handhavingen": 48, "adres": "Koopvaardersplantsoen 55", "aantal_grofvuil": 537}}, {"type": "Feature", "geometry": {"type": "Point", "coordinates": [4.849953432116159, 52.36080084144192]}, "properties": {"totaal_bijplaatsingen": 852, "aantal_handhavingen": 141, "adres": "Postjeskade 171", "aantal_grofvuil": 457}}, {"type": "Feature", "geometry": {"type": "Point", "coordinates": [4.8903806667076335, 52.404773943364425]}, "properties": {"totaal_bijplaatsingen": 852, "aantal_handhavingen": 97, "adres": "mt. Lincolnweg 12", "aantal_grofvuil": 466}}, {"type": "Feature", "geometry": {"type": "Point", "coordinates": [4.888175832216656, 52.40452694101637]}, "properties": {"totaal_bijplaatsingen": 850, "aantal_handhavingen": 86, "adres": "Kraanspoor 29E", "aantal_grofvuil": 375}}, {"type": "Feature", "geometry": {"type": "Point", "coordinates": [4.86132192195184, 52.34764613150657]}, "properties": {"totaal_bijplaatsingen": 848, "aantal_handhavingen": 47, "adres": "Olympiaweg 62", "aantal_grofvuil": 431}}, {"type": "Feature", "geometry": {"type": "Point", "coordinates": [4.903388481858856, 52.36864651123626]}, "properties": {"totaal_bijplaatsingen": 847, "aantal_handhavingen": 196, "adres": "Jodenbreestraat 164", "aantal_grofvuil": 217}}, {"type": "Feature", "geometry": {"type": "Point", "coordinates": [4.956153431744934, 52.39524814089373]}, "properties": {"totaal_bijplaatsingen": 846, "aantal_handhavingen": 52, "adres": "Wieringerwaardstraat 313", "aantal_grofvuil": 429}}, {"type": "Feature", "geometry": {"type": "Point", "coordinates": [4.865359232061588, 52.36569114136351]}, "properties": {"totaal_bijplaatsingen": 845, "aantal_handhavingen": 107, "adres": "Kinkerstraat 244", "aantal_grofvuil": 370}}, {"type": "Feature", "geometry": {"type": "Point", "coordinates": [4.906101545630177, 52.34510617408665]}, "properties": {"totaal_bijplaatsingen": 843, "aantal_handhavingen": 39, "adres": "Lekstraat 56", "aantal_grofvuil": 342}}, {"type": "Feature", "geometry": {"type": "Point", "coordinates": [4.982052301001926, 52.31622365140331]}, "properties": {"totaal_bijplaatsingen": 841, "aantal_handhavingen": 148, "adres": "Klieverink 1072", "aantal_grofvuil": 689}}, {"type": "Feature", "geometry": {"type": "Point", "coordinates": [4.876446786556387, 52.38376005372692]}, "properties": {"totaal_bijplaatsingen": 839, "aantal_handhavingen": 88, "adres": "Van Beuningenstraat 56", "aantal_grofvuil": 437}}, {"type": "Feature", "geometry": {"type": "Point", "coordinates": [4.9095548319563, 52.38660534108755]}, "properties": {"totaal_bijplaatsingen": 836, "aantal_handhavingen": 50, "adres": "Laanweg 100", "aantal_grofvuil": 449}}, {"type": "Feature", "geometry": {"type": "Point", "coordinates": [4.9388182216499965, 52.36880714113634]}, "properties": {"totaal_bijplaatsingen": 835, "aantal_handhavingen": 32, "adres": "Cruquiusweg 31", "aantal_grofvuil": 295}}, {"type": "Feature", "geometry": {"type": "Point", "coordinates": [4.93029366164846, 52.36180524121151]}, "properties": {"totaal_bijplaatsingen": 834, "aantal_handhavingen": 88, "adres": "Reinwardtstraat 113A", "aantal_grofvuil": 486}}, {"type": "Feature", "geometry": {"type": "Point", "coordinates": [4.894900431740986, 52.34598544142583]}, "properties": {"totaal_bijplaatsingen": 831, "aantal_handhavingen": 98, "adres": "Maasstraat 34", "aantal_grofvuil": 315}}, {"type": "Feature", "geometry": {"type": "Point", "coordinates": [4.846876796863995, 52.381086743927824]}, "properties": {"totaal_bijplaatsingen": 830, "aantal_handhavingen": 64, "adres": "Gulden Winckelstraat 29", "aantal_grofvuil": 418}}, {"type": "Feature", "geometry": {"type": "Point", "coordinates": [4.925798395578775, 52.35732815381065]}, "properties": {"totaal_bijplaatsingen": 830, "aantal_handhavingen": 94, "adres": "Tugelaweg 16", "aantal_grofvuil": 447}}, {"type": "Feature", "geometry": {"type": "Point", "coordinates": [4.873990726474041, 52.37631560384143]}, "properties": {"totaal_bijplaatsingen": 829, "aantal_handhavingen": 78, "adres": "Frederik Hendrikstraat 47", "aantal_grofvuil": 423}}, {"type": "Feature", "geometry": {"type": "Point", "coordinates": [4.81957139680134, 52.38260982305585]}, "properties": {"totaal_bijplaatsingen": 825, "aantal_handhavingen": 35, "adres": "Jan Zwanenburghof 22", "aantal_grofvuil": 420}}, {"type": "Feature", "geometry": {"type": "Point", "coordinates": [4.860705811981823, 52.3512116414822]}, "properties": {"totaal_bijplaatsingen": 824, "aantal_handhavingen": 89, "adres": "Hendrik Jacobszstraat 17", "aantal_grofvuil": 316}}, {"type": "Feature", "geometry": {"type": "Point", "coordinates": [4.941546761270049, 52.319759941489394]}, "properties": {"totaal_bijplaatsingen": 820, "aantal_handhavingen": 42, "adres": "Boris Pasternakstraat 115", "aantal_grofvuil": 252}}, {"type": "Feature", "geometry": {"type": "Point", "coordinates": [4.912157726457503, 52.40519767323648]}, "properties": {"totaal_bijplaatsingen": 819, "aantal_handhavingen": 61, "adres": "Tjalkstraat 108", "aantal_grofvuil": 568}}, {"type": "Feature", "geometry": {"type": "Point", "coordinates": [4.8396652223055785, 52.378179751343694]}, "properties": {"totaal_bijplaatsingen": 817, "aantal_handhavingen": 79, "adres": "Woutertje Pietersestraat 34", "aantal_grofvuil": 493}}, {"type": "Feature", "geometry": {"type": "Point", "coordinates": [4.825712232352583, 52.37346794141674]}, "properties": {"totaal_bijplaatsingen": 817, "aantal_handhavingen": 46, "adres": "Frans Naerebouthof 38", "aantal_grofvuil": 421}}, {"type": "Feature", "geometry": {"type": "Point", "coordinates": [4.8752107319359865, 52.35659214140275]}, "properties": {"totaal_bijplaatsingen": 813, "aantal_handhavingen": 94, "adres": "Jacob Obrechtstraat 19", "aantal_grofvuil": 362}}, {"type": "Feature", "geometry": {"type": "Point", "coordinates": [4.801507632380014, 52.35797024159638]}, "properties": {"totaal_bijplaatsingen": 811, "aantal_handhavingen": 105, "adres": "Van Suchtelen van de Haarestraat 90", "aantal_grofvuil": 536}}, {"type": "Feature", "geometry": {"type": "Point", "coordinates": [4.919476371621707, 52.34955827133149]}, "properties": {"totaal_bijplaatsingen": 810, "aantal_handhavingen": 139, "adres": "Eerste Ringdijkstraat 100", "aantal_grofvuil": 502}}, {"type": "Feature", "geometry": {"type": "Point", "coordinates": [4.924225165834357, 52.37318954360358]}, "properties": {"totaal_bijplaatsingen": 803, "aantal_handhavingen": 21, "adres": "Windroosplein 61", "aantal_grofvuil": 452}}, {"type": "Feature", "geometry": {"type": "Point", "coordinates": [4.908909531680815, 52.3490736413644]}, "properties": {"totaal_bijplaatsingen": 800, "aantal_handhavingen": 44, "adres": "Holendrechtstraat 8", "aantal_grofvuil": 402}}, {"type": "Feature", "geometry": {"type": "Point", "coordinates": [4.884401791860505, 52.35373658139813]}, "properties": {"totaal_bijplaatsingen": 796, "aantal_handhavingen": 133, "adres": "Cornelis Anthoniszstraat 37", "aantal_grofvuil": 351}}, {"type": "Feature", "geometry": {"type": "Point", "coordinates": [4.811746112450943, 52.37568273143924]}, "properties": {"totaal_bijplaatsingen": 794, "aantal_handhavingen": 50, "adres": "John Lockehof 1", "aantal_grofvuil": 459}}, {"type": "Feature", "geometry": {"type": "Point", "coordinates": [4.891079765824235, 52.34620799415501]}, "properties": {"totaal_bijplaatsingen": 794, "aantal_handhavingen": 98, "adres": "Scheldestraat 41", "aantal_grofvuil": 275}}, {"type": "Feature", "geometry": {"type": "Point", "coordinates": [4.988799960826255, 52.29788127152024]}, "properties": {"totaal_bijplaatsingen": 791, "aantal_handhavingen": 68, "adres": "Wilnisgracht 11", "aantal_grofvuil": 474}}, {"type": "Feature", "geometry": {"type": "Point", "coordinates": [4.878077796524006, 52.38287913372968]}, "properties": {"totaal_bijplaatsingen": 791, "aantal_handhavingen": 87, "adres": "De Wittenstraat 102", "aantal_grofvuil": 404}}, {"type": "Feature", "geometry": {"type": "Point", "coordinates": [4.868488531886224, 52.34449284150983]}, "properties": {"totaal_bijplaatsingen": 789, "aantal_handhavingen": 82, "adres": "Stadionkade 69", "aantal_grofvuil": 403}}, {"type": "Feature", "geometry": {"type": "Point", "coordinates": [4.960744111186076, 52.3239023214057]}, "properties": {"totaal_bijplaatsingen": 788, "aantal_handhavingen": 147, "adres": "Echtenstein 111", "aantal_grofvuil": 579}}, {"type": "Feature", "geometry": {"type": "Point", "coordinates": [4.868119476201587, 52.353371184185086]}, "properties": {"totaal_bijplaatsingen": 785, "aantal_handhavingen": 102, "adres": "Johannes Verhulststraat 168", "aantal_grofvuil": 268}}, {"type": "Feature", "geometry": {"type": "Point", "coordinates": [4.913924432070555, 52.40530514093851]}, "properties": {"totaal_bijplaatsingen": 784, "aantal_handhavingen": 18, "adres": "Lichterstraat 100", "aantal_grofvuil": 422}}, {"type": "Feature", "geometry": {"type": "Point", "coordinates": [4.966529844214236, 52.29799855439558]}, "properties": {"totaal_bijplaatsingen": 784, "aantal_handhavingen": 51, "adres": "Meernhof 80", "aantal_grofvuil": 374}}, {"type": "Feature", "geometry": {"type": "Point", "coordinates": [4.784248442454263, 52.35431963167049]}, "properties": {"totaal_bijplaatsingen": 783, "aantal_handhavingen": 40, "adres": "Akerwateringstraat 171", "aantal_grofvuil": 307}}, {"type": "Feature", "geometry": {"type": "Point", "coordinates": [4.900364622010739, 52.38662008111316]}, "properties": {"totaal_bijplaatsingen": 783, "aantal_handhavingen": 72, "adres": "Spadinalaan 10", "aantal_grofvuil": 428}}, {"type": "Feature", "geometry": {"type": "Point", "coordinates": [4.922927632869675, 52.37196395003454]}, "properties": {"totaal_bijplaatsingen": 783, "aantal_handhavingen": 75, "adres": "Kleine Wittenburgerstraat 319", "aantal_grofvuil": 440}}, {"type": "Feature", "geometry": {"type": "Point", "coordinates": [4.850976642017524, 52.348274311530574]}, "properties": {"totaal_bijplaatsingen": 783, "aantal_handhavingen": 42, "adres": "Rijnsburgstraat 12", "aantal_grofvuil": 330}}, {"type": "Feature", "geometry": {"type": "Point", "coordinates": [4.93786634551442, 52.36260083367156]}, "properties": {"totaal_bijplaatsingen": 783, "aantal_handhavingen": 53, "adres": "Eerste Atjehstraat 142", "aantal_grofvuil": 384}}, {"type": "Feature", "geometry": {"type": "Point", "coordinates": [4.916076116250716, 52.39452784335924]}, "properties": {"totaal_bijplaatsingen": 782, "aantal_handhavingen": 10, "adres": "Duindoornplein 27", "aantal_grofvuil": 257}}, {"type": "Feature", "geometry": {"type": "Point", "coordinates": [4.913536545799584, 52.38961945242867]}, "properties": {"totaal_bijplaatsingen": 779, "aantal_handhavingen": 36, "adres": "Resedastraat 11", "aantal_grofvuil": 501}}, {"type": "Feature", "geometry": {"type": "Point", "coordinates": [4.856934932149842, 52.37089234134896]}, "properties": {"totaal_bijplaatsingen": 775, "aantal_handhavingen": 67, "adres": "Admiralengracht 176", "aantal_grofvuil": 355}}, {"type": "Feature", "geometry": {"type": "Point", "coordinates": [4.9046744316938975, 52.34744984138801]}, "properties": {"totaal_bijplaatsingen": 774, "aantal_handhavingen": 73, "adres": "Rijnstraat 34", "aantal_grofvuil": 264}}, {"type": "Feature", "geometry": {"type": "Point", "coordinates": [4.964631240995473, 52.30119842156248]}, "properties": {"totaal_bijplaatsingen": 772, "aantal_handhavingen": 85, "adres": "Maasdrielhof 143", "aantal_grofvuil": 444}}, {"type": "Feature", "geometry": {"type": "Point", "coordinates": [4.978234564100799, 52.299795244306125]}, "properties": {"totaal_bijplaatsingen": 771, "aantal_handhavingen": 66, "adres": "Polsbroekstraat 36", "aantal_grofvuil": 430}}, {"type": "Feature", "geometry": {"type": "Point", "coordinates": [4.9208181654543806, 52.34500864400624]}, "properties": {"totaal_bijplaatsingen": 768, "aantal_handhavingen": 42, "adres": "Rosendaalstraat 8", "aantal_grofvuil": 506}}, {"type": "Feature", "geometry": {"type": "Point", "coordinates": [4.904563951732011, 52.35250526135126]}, "properties": {"totaal_bijplaatsingen": 763, "aantal_handhavingen": 79, "adres": "Tolstraat 119", "aantal_grofvuil": 447}}, {"type": "Feature", "geometry": {"type": "Point", "coordinates": [4.876387732190739, 52.39177764114236]}, "properties": {"totaal_bijplaatsingen": 762, "aantal_handhavingen": 51, "adres": "Hembrugstraat 44", "aantal_grofvuil": 402}}, {"type": "Feature", "geometry": {"type": "Point", "coordinates": [4.790005624955646, 52.36209110319629]}, "properties": {"totaal_bijplaatsingen": 762, "aantal_handhavingen": 49, "adres": "Saaftingestraat & Willemskerkestraat", "aantal_grofvuil": 433}}, {"type": "Feature", "geometry": {"type": "Point", "coordinates": [4.923764631739642, 52.36884824117802]}, "properties": {"totaal_bijplaatsingen": 761, "aantal_handhavingen": 40, "adres": "Compagniestraat 14", "aantal_grofvuil": 377}}, {"type": "Feature", "geometry": {"type": "Point", "coordinates": [4.82525006483262, 52.38168988271629]}, "properties": {"totaal_bijplaatsingen": 758, "aantal_handhavingen": 31, "adres": "Van Gilsestraat 31", "aantal_grofvuil": 398}}, {"type": "Feature", "geometry": {"type": "Point", "coordinates": [4.9210137317748375, 52.37138284116712]}, "properties": {"totaal_bijplaatsingen": 756, "aantal_handhavingen": 41, "adres": "Grote Wittenburgerstraat 55", "aantal_grofvuil": 399}}, {"type": "Feature", "geometry": {"type": "Point", "coordinates": [4.841533842321595, 52.38181254131207]}, "properties": {"totaal_bijplaatsingen": 754, "aantal_handhavingen": 31, "adres": "Lauernessestraat 1", "aantal_grofvuil": 328}}, {"type": "Feature", "geometry": {"type": "Point", "coordinates": [4.969955760901795, 52.292787231609886]}, "properties": {"totaal_bijplaatsingen": 754, "aantal_handhavingen": 108, "adres": "Toutenburgstraat 115", "aantal_grofvuil": 505}}, {"type": "Feature", "geometry": {"type": "Point", "coordinates": [4.819361572424181, 52.378096251400606]}, "properties": {"totaal_bijplaatsingen": 753, "aantal_handhavingen": 35, "adres": "Martinus Nijhoffstraat 100", "aantal_grofvuil": 323}}, {"type": "Feature", "geometry": {"type": "Point", "coordinates": [4.928406721627511, 52.35748165124852]}, "properties": {"totaal_bijplaatsingen": 752, "aantal_handhavingen": 70, "adres": "Polderweg 108", "aantal_grofvuil": 417}}, {"type": "Feature", "geometry": {"type": "Point", "coordinates": [4.824316952413352, 52.38055466136901]}, "properties": {"totaal_bijplaatsingen": 752, "aantal_handhavingen": 23, "adres": "Sape Kuiperplantsoen 23", "aantal_grofvuil": 354}}, {"type": "Feature", "geometry": {"type": "Point", "coordinates": [4.945588841234851, 52.31825608148928]}, "properties": {"totaal_bijplaatsingen": 748, "aantal_handhavingen": 53, "adres": "Berthold Brechtstraat 737", "aantal_grofvuil": 426}}, {"type": "Feature", "geometry": {"type": "Point", "coordinates": [5.011166102147395, 52.34938641215472]}, "properties": {"totaal_bijplaatsingen": 747, "aantal_handhavingen": 67, "adres": "Ben van Meerendonkstraat 144", "aantal_grofvuil": 242}}, {"type": "Feature", "geometry": {"type": "Point", "coordinates": [4.903099471983479, 52.3851346511164]}, "properties": {"totaal_bijplaatsingen": 746, "aantal_handhavingen": 95, "adres": "Bercylaan 11", "aantal_grofvuil": 370}}, {"type": "Feature", "geometry": {"type": "Point", "coordinates": [4.9234794318855695, 52.38816564103721]}, "properties": {"totaal_bijplaatsingen": 743, "aantal_handhavingen": 62, "adres": "Flamingostraat 1", "aantal_grofvuil": 447}}, {"type": "Feature", "geometry": {"type": "Point", "coordinates": [4.874246431995389, 52.3638371413524]}, "properties": {"totaal_bijplaatsingen": 740, "aantal_handhavingen": 115, "adres": "Eerste Constantijn Huygensstraat 64", "aantal_grofvuil": 365}}, {"type": "Feature", "geometry": {"type": "Point", "coordinates": [4.936597221492019, 52.3457891013116]}, "properties": {"totaal_bijplaatsingen": 738, "aantal_handhavingen": 61, "adres": "Ritzema Bosstraat 31", "aantal_grofvuil": 349}}, {"type": "Feature", "geometry": {"type": "Point", "coordinates": [4.940079401576837, 52.35999236119756]}, "properties": {"totaal_bijplaatsingen": 738, "aantal_handhavingen": 32, "adres": "Tidorestraat 10A", "aantal_grofvuil": 271}}, {"type": "Feature", "geometry": {"type": "Point", "coordinates": [4.837724632298664, 52.37571254136709]}, "properties": {"totaal_bijplaatsingen": 736, "aantal_handhavingen": 48, "adres": "Willem Augustinstraat 234", "aantal_grofvuil": 418}}, {"type": "Feature", "geometry": {"type": "Point", "coordinates": [4.892896432039139, 52.38451574114937]}, "properties": {"totaal_bijplaatsingen": 735, "aantal_handhavingen": 34, "adres": "Westerdoksdijk 215", "aantal_grofvuil": 384}}, {"type": "Feature", "geometry": {"type": "Point", "coordinates": [4.959361762312562, 52.31875038289514]}, "properties": {"totaal_bijplaatsingen": 734, "aantal_handhavingen": 49, "adres": "Claus van Amsbergstraat 81", "aantal_grofvuil": 289}}, {"type": "Feature", "geometry": {"type": "Point", "coordinates": [4.912344372026312, 52.39816272099521]}, "properties": {"totaal_bijplaatsingen": 733, "aantal_handhavingen": 65, "adres": "Kamperfoelieweg 145", "aantal_grofvuil": 501}}, {"type": "Feature", "geometry": {"type": "Point", "coordinates": [4.946151704454814, 52.32540180318993]}, "properties": {"totaal_bijplaatsingen": 731, "aantal_handhavingen": 40, "adres": "Chestertonlaan 68", "aantal_grofvuil": 501}}, {"type": "Feature", "geometry": {"type": "Point", "coordinates": [4.8353345321791386, 52.35767854150515]}, "properties": {"totaal_bijplaatsingen": 729, "aantal_handhavingen": 50, "adres": "Cornelis Lelylaan 11", "aantal_grofvuil": 277}}, {"type": "Feature", "geometry": {"type": "Point", "coordinates": [4.913738451538386, 52.33369482146384]}, "properties": {"totaal_bijplaatsingen": 727, "aantal_handhavingen": 41, "adres": "Joan Muyskenweg 15A", "aantal_grofvuil": 340}}, {"type": "Feature", "geometry": {"type": "Point", "coordinates": [4.873306466601394, 52.384298743737126]}, "properties": {"totaal_bijplaatsingen": 724, "aantal_handhavingen": 48, "adres": "Fannius Scholtenstraat 29", "aantal_grofvuil": 315}}, {"type": "Feature", "geometry": {"type": "Point", "coordinates": [4.876564790471543, 52.371635973892175]}, "properties": {"totaal_bijplaatsingen": 721, "aantal_handhavingen": 156, "adres": "Rozenstraat & Lijnbaansgracht", "aantal_grofvuil": 225}}, {"type": "Feature", "geometry": {"type": "Point", "coordinates": [4.944067732523287, 52.32065891295159]}, "properties": {"totaal_bijplaatsingen": 719, "aantal_handhavingen": 38, "adres": "Barbusselaan 130", "aantal_grofvuil": 425}}, {"type": "Feature", "geometry": {"type": "Point", "coordinates": [4.949011011206581, 52.31719157148772]}, "properties": {"totaal_bijplaatsingen": 719, "aantal_handhavingen": 101, "adres": "Anna Blamansingel 230", "aantal_grofvuil": 331}}, {"type": "Feature", "geometry": {"type": "Point", "coordinates": [4.913309756217775, 52.39016119343397]}, "properties": {"totaal_bijplaatsingen": 718, "aantal_handhavingen": 77, "adres": "Gentiaanplein 8H", "aantal_grofvuil": 540}}, {"type": "Feature", "geometry": {"type": "Point", "coordinates": [4.911925031974321, 52.3908890410496]}, "properties": {"totaal_bijplaatsingen": 716, "aantal_handhavingen": 63, "adres": "Gentiaanstraat 1", "aantal_grofvuil": 444}}, {"type": "Feature", "geometry": {"type": "Point", "coordinates": [4.971755580891188, 52.29281163160474]}, "properties": {"totaal_bijplaatsingen": 710, "aantal_handhavingen": 54, "adres": "Tefelenstraat 10", "aantal_grofvuil": 385}}, {"type": "Feature", "geometry": {"type": "Point", "coordinates": [4.963810315397944, 52.37538454335212]}, "properties": {"totaal_bijplaatsingen": 706, "aantal_handhavingen": 98, "adres": "Mary van der Sluisstraat 498", "aantal_grofvuil": 338}}, {"type": "Feature", "geometry": {"type": "Point", "coordinates": [4.926005201964614, 52.40070737093831]}, "properties": {"totaal_bijplaatsingen": 705, "aantal_handhavingen": 100, "adres": "J.H. Hisgenpad 2", "aantal_grofvuil": 557}}, {"type": "Feature", "geometry": {"type": "Point", "coordinates": [4.921929515536799, 52.351433903912536]}, "properties": {"totaal_bijplaatsingen": 705, "aantal_handhavingen": 51, "adres": "Stephensonstraat 1", "aantal_grofvuil": 306}}, {"type": "Feature", "geometry": {"type": "Point", "coordinates": [4.857188132180245, 52.37518644131688]}, "properties": {"totaal_bijplaatsingen": 705, "aantal_handhavingen": 69, "adres": "Joos Banckersweg 8", "aantal_grofvuil": 271}}, {"type": "Feature", "geometry": {"type": "Point", "coordinates": [4.929996271669646, 52.36441462119319]}, "properties": {"totaal_bijplaatsingen": 704, "aantal_handhavingen": 55, "adres": "Roomtuintjes 162", "aantal_grofvuil": 203}}, {"type": "Feature", "geometry": {"type": "Point", "coordinates": [4.917738631972719, 52.3952673410013]}, "properties": {"totaal_bijplaatsingen": 701, "aantal_handhavingen": 49, "adres": "Wingerdweg 145", "aantal_grofvuil": 235}}, {"type": "Feature", "geometry": {"type": "Point", "coordinates": [4.889834601778265, 52.34696910143267]}, "properties": {"totaal_bijplaatsingen": 698, "aantal_handhavingen": 87, "adres": "Churchill-laan 177", "aantal_grofvuil": 258}}, {"type": "Feature", "geometry": {"type": "Point", "coordinates": [4.938633175494863, 52.36190074367682]}, "properties": {"totaal_bijplaatsingen": 695, "aantal_handhavingen": 49, "adres": "Riouwstraat 280", "aantal_grofvuil": 429}}, {"type": "Feature", "geometry": {"type": "Point", "coordinates": [4.780193532498319, 52.3570787416616]}, "properties": {"totaal_bijplaatsingen": 695, "aantal_handhavingen": 32, "adres": "Griendstraat 20", "aantal_grofvuil": 465}}, {"type": "Feature", "geometry": {"type": "Point", "coordinates": [4.888935532038389, 52.38127954118408]}, "properties": {"totaal_bijplaatsingen": 693, "aantal_handhavingen": 128, "adres": "Korte Prinsengracht 32", "aantal_grofvuil": 287}}, {"type": "Feature", "geometry": {"type": "Point", "coordinates": [4.800647132334209, 52.35107084164898]}, "properties": {"totaal_bijplaatsingen": 693, "aantal_handhavingen": 60, "adres": "Jan Smitstraat 140", "aantal_grofvuil": 488}}, {"type": "Feature", "geometry": {"type": "Point", "coordinates": [4.839376596450346, 52.34732356442622]}, "properties": {"totaal_bijplaatsingen": 692, "aantal_handhavingen": 37, "adres": "Overschiestraat 170", "aantal_grofvuil": 385}}, {"type": "Feature", "geometry": {"type": "Point", "coordinates": [4.909464631983727, 52.39020194106151]}, "properties": {"totaal_bijplaatsingen": 691, "aantal_handhavingen": 49, "adres": "Bremstraat 45", "aantal_grofvuil": 460}}, {"type": "Feature", "geometry": {"type": "Point", "coordinates": [4.965439821145346, 52.32218690140536]}, "properties": {"totaal_bijplaatsingen": 689, "aantal_handhavingen": 76, "adres": "Bertha von Suttnerstraat 42", "aantal_grofvuil": 386}}, {"type": "Feature", "geometry": {"type": "Point", "coordinates": [4.90855508169901, 52.35124539134944]}, "properties": {"totaal_bijplaatsingen": 688, "aantal_handhavingen": 45, "adres": "Smaragdstraat 127", "aantal_grofvuil": 424}}, {"type": "Feature", "geometry": {"type": "Point", "coordinates": [4.970581440928581, 52.29694470157744]}, "properties": {"totaal_bijplaatsingen": 685, "aantal_handhavingen": 46, "adres": "Montfoorthof 127", "aantal_grofvuil": 353}}, {"type": "Feature", "geometry": {"type": "Point", "coordinates": [4.831832797008634, 52.37895203404037]}, "properties": {"totaal_bijplaatsingen": 685, "aantal_handhavingen": 31, "adres": "Burgemeester Fockstraat 37", "aantal_grofvuil": 343}}, {"type": "Feature", "geometry": {"type": "Point", "coordinates": [4.8595984317942, 52.32486234167802]}, "properties": {"totaal_bijplaatsingen": 685, "aantal_handhavingen": 103, "adres": "Bolestein 510", "aantal_grofvuil": 253}}, {"type": "Feature", "geometry": {"type": "Point", "coordinates": [4.92558014564605, 52.3616637737529]}, "properties": {"totaal_bijplaatsingen": 684, "aantal_handhavingen": 48, "adres": "Tweede van Swindenstraat 13", "aantal_grofvuil": 338}}, {"type": "Feature", "geometry": {"type": "Point", "coordinates": [4.832490016161561, 52.34973758346321]}, "properties": {"totaal_bijplaatsingen": 682, "aantal_handhavingen": 70, "adres": "Ottho Heldringstraat 7", "aantal_grofvuil": 336}}, {"type": "Feature", "geometry": {"type": "Point", "coordinates": [4.860738232057858, 52.36151204140685]}, "properties": {"totaal_bijplaatsingen": 682, "aantal_handhavingen": 74, "adres": "Pieter Langendijkstraat 13", "aantal_grofvuil": 301}}, {"type": "Feature", "geometry": {"type": "Point", "coordinates": [5.000543514639221, 52.35394888343936]}, "properties": {"totaal_bijplaatsingen": 680, "aantal_handhavingen": 68, "adres": "Maria Austriastraat 973", "aantal_grofvuil": 310}}, {"type": "Feature", "geometry": {"type": "Point", "coordinates": [4.959487551724958, 52.395224510884574]}, "properties": {"totaal_bijplaatsingen": 679, "aantal_handhavingen": 55, "adres": "Den Helderstraat 38", "aantal_grofvuil": 372}}, {"type": "Feature", "geometry": {"type": "Point", "coordinates": [4.84705739202986, 52.34681426155207]}, "properties": {"totaal_bijplaatsingen": 677, "aantal_handhavingen": 33, "adres": "Rijnsburgstraat 96", "aantal_grofvuil": 297}}, {"type": "Feature", "geometry": {"type": "Point", "coordinates": [4.927786454441314, 52.37187388320857]}, "properties": {"totaal_bijplaatsingen": 676, "aantal_handhavingen": 130, "adres": "Oostenburgermiddenstraat 208", "aantal_grofvuil": 378}}, {"type": "Feature", "geometry": {"type": "Point", "coordinates": [4.967306270912856, 52.29213212162205]}, "properties": {"totaal_bijplaatsingen": 674, "aantal_handhavingen": 73, "adres": "Tolkamerstraat 2A", "aantal_grofvuil": 502}}, {"type": "Feature", "geometry": {"type": "Point", "coordinates": [4.847870766861526, 52.38170264391404]}, "properties": {"totaal_bijplaatsingen": 673, "aantal_handhavingen": 74, "adres": "Granidastraat 39", "aantal_grofvuil": 386}}, {"type": "Feature", "geometry": {"type": "Point", "coordinates": [4.954599155572119, 52.30675670877748]}, "properties": {"totaal_bijplaatsingen": 672, "aantal_handhavingen": 78, "adres": "Bullewijkpad 17", "aantal_grofvuil": 294}}, {"type": "Feature", "geometry": {"type": "Point", "coordinates": [4.876237831969679, 52.36195634136067]}, "properties": {"totaal_bijplaatsingen": 672, "aantal_handhavingen": 35, "adres": "Vondelstraat 66", "aantal_grofvuil": 225}}, {"type": "Feature", "geometry": {"type": "Point", "coordinates": [4.950928071222509, 52.320901651455024]}, "properties": {"totaal_bijplaatsingen": 672, "aantal_handhavingen": 103, "adres": "Daalwijk 108", "aantal_grofvuil": 398}}, {"type": "Feature", "geometry": {"type": "Point", "coordinates": [4.921236571871158, 52.38446344107064]}, "properties": {"totaal_bijplaatsingen": 671, "aantal_handhavingen": 195, "adres": "Spijkerkade 2", "aantal_grofvuil": 506}}, {"type": "Feature", "geometry": {"type": "Point", "coordinates": [4.804293592360584, 52.3575517515918]}, "properties": {"totaal_bijplaatsingen": 670, "aantal_handhavingen": 129, "adres": "Nieuwe Osdorpergracht 400H", "aantal_grofvuil": 367}}, {"type": "Feature", "geometry": {"type": "Point", "coordinates": [4.831534044117967, 52.38169786060488]}, "properties": {"totaal_bijplaatsingen": 668, "aantal_handhavingen": 42, "adres": "Nico Snijdersstraat 10", "aantal_grofvuil": 416}}, {"type": "Feature", "geometry": {"type": "Point", "coordinates": [4.881108042090157, 52.3820265312004]}, "properties": {"totaal_bijplaatsingen": 667, "aantal_handhavingen": 128, "adres": "Marnixstraat 38", "aantal_grofvuil": 275}}, {"type": "Feature", "geometry": {"type": "Point", "coordinates": [4.884640914142513, 52.38228753237734]}, "properties": {"totaal_bijplaatsingen": 667, "aantal_handhavingen": 194, "adres": "Palmgracht 4", "aantal_grofvuil": 187}}, {"type": "Feature", "geometry": {"type": "Point", "coordinates": [4.900025661784748, 52.3559914213383]}, "properties": {"totaal_bijplaatsingen": 667, "aantal_handhavingen": 80, "adres": "Van Woustraat 54", "aantal_grofvuil": 341}}, {"type": "Feature", "geometry": {"type": "Point", "coordinates": [4.870893466603603, 52.382548243774224]}, "properties": {"totaal_bijplaatsingen": 666, "aantal_handhavingen": 61, "adres": "Van Hogendorpstraat 207", "aantal_grofvuil": 329}}, {"type": "Feature", "geometry": {"type": "Point", "coordinates": [4.8486119359827, 52.35048294336308]}, "properties": {"totaal_bijplaatsingen": 664, "aantal_handhavingen": 88, "adres": "Stolwijkstraat 35", "aantal_grofvuil": 334}}, {"type": "Feature", "geometry": {"type": "Point", "coordinates": [4.988526430849383, 52.300800401499366]}, "properties": {"totaal_bijplaatsingen": 663, "aantal_handhavingen": 49, "adres": "Wamelstraat 112", "aantal_grofvuil": 362}}, {"type": "Feature", "geometry": {"type": "Point", "coordinates": [4.795379032367714, 52.35142414166093]}, "properties": {"totaal_bijplaatsingen": 663, "aantal_handhavingen": 45, "adres": "Pieter Calandlaan 246D", "aantal_grofvuil": 355}}, {"type": "Feature", "geometry": {"type": "Point", "coordinates": [4.845966766879319, 52.38139784392872]}, "properties": {"totaal_bijplaatsingen": 662, "aantal_handhavingen": 45, "adres": "Jephtastraat 64", "aantal_grofvuil": 353}}, {"type": "Feature", "geometry": {"type": "Point", "coordinates": [4.878564464189752, 52.38064618243523]}, "properties": {"totaal_bijplaatsingen": 657, "aantal_handhavingen": 38, "adres": "Fagelstraat 8", "aantal_grofvuil": 368}}, {"type": "Feature", "geometry": {"type": "Point", "coordinates": [4.895018965863093, 52.351958344055]}, "properties": {"totaal_bijplaatsingen": 657, "aantal_handhavingen": 150, "adres": "Rustenburgerstraat 302", "aantal_grofvuil": 351}}, {"type": "Feature", "geometry": {"type": "Point", "coordinates": [4.980228274065469, 52.29901766430587]}, "properties": {"totaal_bijplaatsingen": 657, "aantal_handhavingen": 76, "adres": "Poederooienstraat 101", "aantal_grofvuil": 365}}, {"type": "Feature", "geometry": {"type": "Point", "coordinates": [4.798426767384319, 52.37792494423963]}, "properties": {"totaal_bijplaatsingen": 656, "aantal_handhavingen": 21, "adres": "Leenhofstraat 79", "aantal_grofvuil": 269}}, {"type": "Feature", "geometry": {"type": "Point", "coordinates": [4.880621932075218, 52.37963644121921]}, "properties": {"totaal_bijplaatsingen": 655, "aantal_handhavingen": 194, "adres": "Goudsbloemstraat 103", "aantal_grofvuil": 265}}, {"type": "Feature", "geometry": {"type": "Point", "coordinates": [4.958190641038615, 52.30182593157562]}, "properties": {"totaal_bijplaatsingen": 654, "aantal_handhavingen": 64, "adres": "Nieuwersluishof 84", "aantal_grofvuil": 432}}, {"type": "Feature", "geometry": {"type": "Point", "coordinates": [4.809909187209208, 52.37517758421297]}, "properties": {"totaal_bijplaatsingen": 653, "aantal_handhavingen": 38, "adres": "Rousseaustraat 36", "aantal_grofvuil": 375}}, {"type": "Feature", "geometry": {"type": "Point", "coordinates": [4.884540064178648, 52.38463008234369]}, "properties": {"totaal_bijplaatsingen": 653, "aantal_handhavingen": 195, "adres": "Kleine Houtstraat 3", "aantal_grofvuil": 274}}, {"type": "Feature", "geometry": {"type": "Point", "coordinates": [4.937117185648667, 52.37098344356158]}, "properties": {"totaal_bijplaatsingen": 653, "aantal_handhavingen": 34, "adres": "Borneolaan 176", "aantal_grofvuil": 359}}, {"type": "Feature", "geometry": {"type": "Point", "coordinates": [4.860413113854589, 52.34359435307745]}, "properties": {"totaal_bijplaatsingen": 652, "aantal_handhavingen": 34, "adres": "Jasonstraat 30", "aantal_grofvuil": 365}}, {"type": "Feature", "geometry": {"type": "Point", "coordinates": [4.918857431592498, 52.345121191365806]}, "properties": {"totaal_bijplaatsingen": 651, "aantal_handhavingen": 73, "adres": "Julianaplein 2", "aantal_grofvuil": 322}}, {"type": "Feature", "geometry": {"type": "Point", "coordinates": [4.9423261612921054, 52.32337997146061]}, "properties": {"totaal_bijplaatsingen": 650, "aantal_handhavingen": 38, "adres": "Alexander Dumaslaan 314", "aantal_grofvuil": 310}}, {"type": "Feature", "geometry": {"type": "Point", "coordinates": [4.861388532108328, 52.36883494135159]}, "properties": {"totaal_bijplaatsingen": 649, "aantal_handhavingen": 111, "adres": "Van Kinsbergenstraat 25", "aantal_grofvuil": 347}}, {"type": "Feature", "geometry": {"type": "Point", "coordinates": [4.90385663189474, 52.373838341196944]}, "properties": {"totaal_bijplaatsingen": 649, "aantal_handhavingen": 194, "adres": "Binnenkant 17", "aantal_grofvuil": 185}}, {"type": "Feature", "geometry": {"type": "Point", "coordinates": [4.887249622036702, 52.37971760120017]}, "properties": {"totaal_bijplaatsingen": 649, "aantal_handhavingen": 264, "adres": "Noordermarkt 46C", "aantal_grofvuil": 262}}, {"type": "Feature", "geometry": {"type": "Point", "coordinates": [4.963846852311531, 52.32230867281776]}, "properties": {"totaal_bijplaatsingen": 646, "aantal_handhavingen": 74, "adres": "Isabella Richaardsstraat 78", "aantal_grofvuil": 424}}, {"type": "Feature", "geometry": {"type": "Point", "coordinates": [4.984167500854912, 52.29799944153212]}, "properties": {"totaal_bijplaatsingen": 646, "aantal_handhavingen": 72, "adres": "Voorthuizenstraat 108", "aantal_grofvuil": 425}}, {"type": "Feature", "geometry": {"type": "Point", "coordinates": [4.895079661719858, 52.34327248144522]}, "properties": {"totaal_bijplaatsingen": 646, "aantal_handhavingen": 72, "adres": "Niersstraat 15", "aantal_grofvuil": 303}}, {"type": "Feature", "geometry": {"type": "Point", "coordinates": [4.799541067381444, 52.378606944224266]}, "properties": {"totaal_bijplaatsingen": 645, "aantal_handhavingen": 27, "adres": "Strack\u00e9straat 39", "aantal_grofvuil": 286}}, {"type": "Feature", "geometry": {"type": "Point", "coordinates": [4.912004566113704, 52.38219514354949]}, "properties": {"totaal_bijplaatsingen": 645, "aantal_handhavingen": 35, "adres": "IJplein 456", "aantal_grofvuil": 229}}, {"type": "Feature", "geometry": {"type": "Point", "coordinates": [4.825334366600713, 52.34633254451719]}, "properties": {"totaal_bijplaatsingen": 644, "aantal_handhavingen": 121, "adres": "Louwesweg 3", "aantal_grofvuil": 322}}, {"type": "Feature", "geometry": {"type": "Point", "coordinates": [4.907509331999694, 52.3907911410627]}, "properties": {"totaal_bijplaatsingen": 641, "aantal_handhavingen": 29, "adres": "Lavendelstraat 14", "aantal_grofvuil": 424}}, {"type": "Feature", "geometry": {"type": "Point", "coordinates": [4.794533712300521, 52.34161292173464]}, "properties": {"totaal_bijplaatsingen": 640, "aantal_handhavingen": 52, "adres": "Langsom 2", "aantal_grofvuil": 335}}, {"type": "Feature", "geometry": {"type": "Point", "coordinates": [4.884111041864936, 52.35410298139625]}, "properties": {"totaal_bijplaatsingen": 640, "aantal_handhavingen": 70, "adres": "Pieter Baststraat 2", "aantal_grofvuil": 278}}, {"type": "Feature", "geometry": {"type": "Point", "coordinates": [4.864014321974174, 52.35281817146132]}, "properties": {"totaal_bijplaatsingen": 640, "aantal_handhavingen": 98, "adres": "Valeriusplein 7", "aantal_grofvuil": 156}}, {"type": "Feature", "geometry": {"type": "Point", "coordinates": [4.853239766642926, 52.37127149402519]}, "properties": {"totaal_bijplaatsingen": 638, "aantal_handhavingen": 58, "adres": "Jan Maijenstraat 2", "aantal_grofvuil": 305}}, {"type": "Feature", "geometry": {"type": "Point", "coordinates": [4.912983412007882, 52.39620735100774]}, "properties": {"totaal_bijplaatsingen": 637, "aantal_handhavingen": 26, "adres": "Heggerankweg 88", "aantal_grofvuil": 278}}, {"type": "Feature", "geometry": {"type": "Point", "coordinates": [4.794332443742594, 52.35748834588668]}, "properties": {"totaal_bijplaatsingen": 637, "aantal_handhavingen": 37, "adres": "Emmikhovenstraat 134", "aantal_grofvuil": 396}}, {"type": "Feature", "geometry": {"type": "Point", "coordinates": [4.814383732433576, 52.37542624143385]}, "properties": {"totaal_bijplaatsingen": 637, "aantal_handhavingen": 33, "adres": "Schopenhauerhof 30", "aantal_grofvuil": 405}}, {"type": "Feature", "geometry": {"type": "Point", "coordinates": [4.943890115021962, 52.3617178026681]}, "properties": {"totaal_bijplaatsingen": 636, "aantal_handhavingen": 56, "adres": "Semarangstraat 7", "aantal_grofvuil": 400}}, {"type": "Feature", "geometry": {"type": "Point", "coordinates": [4.903540931830937, 52.36501424126246]}, "properties": {"totaal_bijplaatsingen": 635, "aantal_handhavingen": 166, "adres": "Nieuwe Keizersgracht 1", "aantal_grofvuil": 136}}, {"type": "Feature", "geometry": {"type": "Point", "coordinates": [4.913812125746238, 52.35903912385421]}, "properties": {"totaal_bijplaatsingen": 635, "aantal_handhavingen": 61, "adres": "Tilanusstraat 81H", "aantal_grofvuil": 316}}, {"type": "Feature", "geometry": {"type": "Point", "coordinates": [4.8246519324223325, 52.38202824135735]}, "properties": {"totaal_bijplaatsingen": 634, "aantal_handhavingen": 62, "adres": "Victor Rutgersstraat 1", "aantal_grofvuil": 356}}, {"type": "Feature", "geometry": {"type": "Point", "coordinates": [4.850037156040315, 52.35550361328184]}, "properties": {"totaal_bijplaatsingen": 634, "aantal_handhavingen": 63, "adres": "Albert Neuhuysstraat 34", "aantal_grofvuil": 303}}, {"type": "Feature", "geometry": {"type": "Point", "coordinates": [4.910083205924532, 52.36803236375268]}, "properties": {"totaal_bijplaatsingen": 630, "aantal_handhavingen": 44, "adres": "Plantage Parklaan 20", "aantal_grofvuil": 164}}, {"type": "Feature", "geometry": {"type": "Point", "coordinates": [4.851708032276143, 52.38374394126972]}, "properties": {"totaal_bijplaatsingen": 629, "aantal_handhavingen": 57, "adres": "Van Gentstraat 24", "aantal_grofvuil": 286}}, {"type": "Feature", "geometry": {"type": "Point", "coordinates": [4.920890830972849, 52.408557723720826]}, "properties": {"totaal_bijplaatsingen": 629, "aantal_handhavingen": 9, "adres": "Bramzeil 105", "aantal_grofvuil": 216}}, {"type": "Feature", "geometry": {"type": "Point", "coordinates": [4.93066312530615, 52.37022239261723]}, "properties": {"totaal_bijplaatsingen": 626, "aantal_handhavingen": 49, "adres": "Tweede Leeghwaterstraat 2", "aantal_grofvuil": 288}}, {"type": "Feature", "geometry": {"type": "Point", "coordinates": [4.91506971022701, 52.35425813231728]}, "properties": {"totaal_bijplaatsingen": 624, "aantal_handhavingen": 45, "adres": "Platanenweg 38", "aantal_grofvuil": 309}}, {"type": "Feature", "geometry": {"type": "Point", "coordinates": [4.960871502588199, 52.3945256265467]}, "properties": {"totaal_bijplaatsingen": 623, "aantal_handhavingen": 51, "adres": "Eierlandstraat 122", "aantal_grofvuil": 356}}, {"type": "Feature", "geometry": {"type": "Point", "coordinates": [4.954989804359944, 52.29853308445202]}, "properties": {"totaal_bijplaatsingen": 622, "aantal_handhavingen": 80, "adres": "Pietersbergweg 796", "aantal_grofvuil": 274}}, {"type": "Feature", "geometry": {"type": "Point", "coordinates": [4.841294032279821, 52.3760006413551]}, "properties": {"totaal_bijplaatsingen": 620, "aantal_handhavingen": 30, "adres": "Jacob van Arteveldestraat 10", "aantal_grofvuil": 231}}, {"type": "Feature", "geometry": {"type": "Point", "coordinates": [4.90622563189738, 52.376073541174]}, "properties": {"totaal_bijplaatsingen": 618, "aantal_handhavingen": 8, "adres": "Oosterdokskade 29", "aantal_grofvuil": 81}}, {"type": "Feature", "geometry": {"type": "Point", "coordinates": [4.953178494528832, 52.30851486432526]}, "properties": {"totaal_bijplaatsingen": 617, "aantal_handhavingen": 329, "adres": "Foppingadreef 26", "aantal_grofvuil": 506}}, {"type": "Feature", "geometry": {"type": "Point", "coordinates": [4.893118971825677, 52.35599633135744]}, "properties": {"totaal_bijplaatsingen": 617, "aantal_handhavingen": 79, "adres": "Gerard Douplein 18", "aantal_grofvuil": 296}}, {"type": "Feature", "geometry": {"type": "Point", "coordinates": [4.869836276493146, 52.37431917389156]}, "properties": {"totaal_bijplaatsingen": 615, "aantal_handhavingen": 59, "adres": "Van Reigersbergenstraat 252", "aantal_grofvuil": 324}}, {"type": "Feature", "geometry": {"type": "Point", "coordinates": [4.908363031989218, 52.3900656410656]}, "properties": {"totaal_bijplaatsingen": 614, "aantal_handhavingen": 12, "adres": "Lupineplein 11", "aantal_grofvuil": 277}}, {"type": "Feature", "geometry": {"type": "Point", "coordinates": [4.834143232353197, 52.380222301344176]}, "properties": {"totaal_bijplaatsingen": 613, "aantal_handhavingen": 31, "adres": "Johannes Poststraat 25", "aantal_grofvuil": 320}}, {"type": "Feature", "geometry": {"type": "Point", "coordinates": [4.969646691086629, 52.31764158142722]}, "properties": {"totaal_bijplaatsingen": 610, "aantal_handhavingen": 45, "adres": "Kloekhorststraat 103", "aantal_grofvuil": 341}}, {"type": "Feature", "geometry": {"type": "Point", "coordinates": [4.917784053315055, 52.35303310262138]}, "properties": {"totaal_bijplaatsingen": 610, "aantal_handhavingen": 57, "adres": "Christiaan de Wetstraat 240", "aantal_grofvuil": 401}},