{"type": "FeatureCollection", "features": [{"type": "Feature", "geometry": {"type": "Point", "coordinates": [4.889670923654586, 52.36979328924252]}, "properties": {"id": 0, "Unnamed: 0": 1898, "bag_openbareruimte_id": 363300000004690.0, "totaal_bijplaatsingen": 4901, "aantal_grofvuil": 1340, "stadsdeel": "Centrum", "postcode": "1012RM", "adres": "Nieuwezijds Voorburgwal 361", "geometrie_origineel": "POINT (121115.76187338604 486995.540906291)", "dumpplek": false, "aantal_handhavingen": 879}}, {"type": "Feature", "geometry": {"type": "Point", "coordinates": [4.963684811132281, 52.318998111433714]}, "properties": {"id": 1, "Unnamed: 0": 726, "bag_openbareruimte_id": 363300000002933.0, "totaal_bijplaatsingen": 4810, "aantal_grofvuil": 2381, "stadsdeel": "Zuidoost", "postcode": "1103TA", "adres": "Bijlmerdreef 743", "geometrie_origineel": "POINT (126123.3739612463 481311.89173156786)", "dumpplek": false, "aantal_handhavingen": 323}}, {"type": "Feature", "geometry": {"type": "Point", "coordinates": [4.851260866800416, 52.38027524391443]}, "properties": {"id": 2, "Unnamed: 0": 1525, "bag_openbareruimte_id": 363300000004146.0, "totaal_bijplaatsingen": 3479, "aantal_grofvuil": 1497, "stadsdeel": "West", "postcode": "1055JE", "adres": "Leeuwendalersweg 1", "geometrie_origineel": "POINT (118508.52328404308 488180.44417117833)", "dumpplek": false, "aantal_handhavingen": 226}}, {"type": "Feature", "geometry": {"type": "Point", "coordinates": [4.947839821274111, 52.305197252968206]}, "properties": {"id": 3, "Unnamed: 0": 314, "bag_openbareruimte_id": 363300000001919.0, "totaal_bijplaatsingen": 3276, "aantal_grofvuil": 1941, "stadsdeel": "Zuidoost", "postcode": "postcode niet in CMS", "adres": "Karspeldreef 4", "geometrie_origineel": "POINT (125033.72628609627 479782.8080459102)", "dumpplek": false, "aantal_handhavingen": 417}}, {"type": "Feature", "geometry": {"type": "Point", "coordinates": [4.922354436055971, 52.413581252028365]}, "properties": {"id": 4, "Unnamed: 0": 2387, "bag_openbareruimte_id": 363300000005367.0, "totaal_bijplaatsingen": 3047, "aantal_grofvuil": 1669, "stadsdeel": "Noord", "postcode": "1034PP", "adres": "Noorderbreedte 153", "geometrie_origineel": "POINT (123372.88607724872 491852.77301776264)", "dumpplek": false, "aantal_handhavingen": 162}}, {"type": "Feature", "geometry": {"type": "Point", "coordinates": [4.835994632110228, 52.348872041567546]}, "properties": {"id": 5, "Unnamed: 0": 1590, "bag_openbareruimte_id": 363300000004235.0, "totaal_bijplaatsingen": 2792, "aantal_grofvuil": 1144, "stadsdeel": "Nieuw-West", "postcode": "1062GT", "adres": "Maassluisstraat 438", "geometrie_origineel": "POINT (117442.51070129356 484694.2443414721)", "dumpplek": false, "aantal_handhavingen": 437}}, {"type": "Feature", "geometry": {"type": "Point", "coordinates": [4.8532504321335175, 52.36576594139656]}, "properties": {"id": 6, "Unnamed: 0": 1146, "bag_openbareruimte_id": 363300000003587.0, "totaal_bijplaatsingen": 2641, "aantal_grofvuil": 864, "stadsdeel": "West", "postcode": "1057DD", "adres": "Hoofdweg 180", "geometrie_origineel": "POINT (118632.09315790104 486565.099019263)", "dumpplek": false, "aantal_handhavingen": 187}}, {"type": "Feature", "geometry": {"type": "Point", "coordinates": [4.87632242641827, 52.37441911385415]}, "properties": {"id": 7, "Unnamed: 0": 1617, "bag_openbareruimte_id": 363300000004272.0, "totaal_bijplaatsingen": 2597, "aantal_grofvuil": 1088, "stadsdeel": "Centrum", "postcode": "1015WL", "adres": "Marnixstraat tegenover 293", "geometrie_origineel": "POINT (120210.30843641679 487516.5483900359)", "dumpplek": false, "aantal_handhavingen": 547}}, {"type": "Feature", "geometry": {"type": "Point", "coordinates": [4.888486731962883, 52.37078374126205]}, "properties": {"id": 8, "Unnamed: 0": 1782, "bag_openbareruimte_id": 363300000004526.0, "totaal_bijplaatsingen": 2582, "aantal_grofvuil": 612, "stadsdeel": "Centrum", "postcode": "Nederland", "adres": "Singel 297", "geometrie_origineel": "POINT (121035.87238193268 487106.295860715)", "dumpplek": true, "aantal_handhavingen": 937}}, {"type": "Feature", "geometry": {"type": "Point", "coordinates": [4.889246963923379, 52.37122753251346]}, "properties": {"id": 9, "Unnamed: 0": 2124, "bag_openbareruimte_id": 363300000005005.0, "totaal_bijplaatsingen": 2562, "aantal_grofvuil": 661, "stadsdeel": "Centrum", "postcode": "1012VV", "adres": "Spuistraat 234", "geometrie_origineel": "POINT (121087.98510919328 487155.317396998)", "dumpplek": false, "aantal_handhavingen": 665}}, {"type": "Feature", "geometry": {"type": "Point", "coordinates": [4.8983886319254895, 52.37362444121376]}, "properties": {"id": 10, "Unnamed: 0": 1903, "bag_openbareruimte_id": 363300000004696.0, "totaal_bijplaatsingen": 2510, "aantal_grofvuil": 765, "stadsdeel": "Centrumlocaties", "postcode": "Nederland", "adres": "Oudezijds Voorburgwal 85", "geometrie_origineel": "POINT (121712.34536998911 487417.76651184564)", "dumpplek": true, "aantal_handhavingen": 359}}, {"type": "Feature", "geometry": {"type": "Point", "coordinates": [4.970744721123072, 52.32346276138124]}, "properties": {"id": 11, "Unnamed: 0": 2626, "bag_openbareruimte_id": 363300000005773.0, "totaal_bijplaatsingen": 2507, "aantal_grofvuil": 1536, "stadsdeel": "Zuidoost", "postcode": "1103BG", "adres": "Geldershoofd 116", "geometrie_origineel": "POINT (126607.5862861233 481805.8512164434)", "dumpplek": false, "aantal_handhavingen": 267}}, {"type": "Feature", "geometry": {"type": "Point", "coordinates": [4.900016931910344, 52.37288374121463]}, "properties": {"id": 12, "Unnamed: 0": 1347, "bag_openbareruimte_id": 363300000003878.0, "totaal_bijplaatsingen": 2500, "aantal_grofvuil": 1055, "stadsdeel": "Centrum", "postcode": "Nederland", "adres": "Nieuwmarkt 10III", "geometrie_origineel": "POINT (121822.67510132195 487334.6072539614)", "dumpplek": true, "aantal_handhavingen": 655}}, {"type": "Feature", "geometry": {"type": "Point", "coordinates": [4.873196632019339, 52.366229241337855]}, "properties": {"id": 13, "Unnamed: 0": 1030, "bag_openbareruimte_id": 363300000003405.0, "totaal_bijplaatsingen": 2464, "aantal_grofvuil": 1223, "stadsdeel": "West", "postcode": "1053HD", "adres": "Jacob van Lennepstraat 55A", "geometrie_origineel": "POINT (119990.98974782621 486606.8248845207)", "dumpplek": false, "aantal_handhavingen": 308}}, {"type": "Feature", "geometry": {"type": "Point", "coordinates": [4.923129481601573, 52.34976792131982]}, "properties": {"id": 14, "Unnamed: 0": 1039, "bag_openbareruimte_id": 363300000003414.0, "totaal_bijplaatsingen": 2458, "aantal_grofvuil": 1257, "stadsdeel": "Oost", "postcode": "1097JR", "adres": "Pierre Lallementstraat 164", "geometrie_origineel": "POINT (123380.14996860949 484752.3416075735)", "dumpplek": false, "aantal_handhavingen": 325}}, {"type": "Feature", "geometry": {"type": "Point", "coordinates": [4.936768431872001, 52.39685904093631]}, "properties": {"id": 15, "Unnamed: 0": 1118, "bag_openbareruimte_id": 363300000003550.0, "totaal_bijplaatsingen": 2368, "aantal_grofvuil": 760, "stadsdeel": "Noord", "postcode": "1025GD", "adres": "Het Laagt 87", "geometrie_origineel": "POINT (124341.99927537276 489985.99673239875)", "dumpplek": false, "aantal_handhavingen": 89}}, {"type": "Feature", "geometry": {"type": "Point", "coordinates": [4.972968281093774, 52.32129771139105]}, "properties": {"id": 16, "Unnamed: 0": 1253, "bag_openbareruimte_id": 363300000003754.0, "totaal_bijplaatsingen": 2367, "aantal_grofvuil": 1352, "stadsdeel": "Zuidoost", "postcode": "1103ED", "adres": "Groeneveen 62", "geometrie_origineel": "POINT (126757.80157615118 481564.09391712304)", "dumpplek": false, "aantal_handhavingen": 249}}, {"type": "Feature", "geometry": {"type": "Point", "coordinates": [4.901913931783751, 52.35736418132301]}, "properties": {"id": 17, "Unnamed: 0": 1236, "bag_openbareruimte_id": 363300000003732.0, "totaal_bijplaatsingen": 2352, "aantal_grofvuil": 994, "stadsdeel": "Zuid", "postcode": "1074CC", "adres": "Govert Flinckstraat 339", "geometrie_origineel": "POINT (121940.29672196787 485606.98839053186)", "dumpplek": false, "aantal_handhavingen": 221}}, {"type": "Feature", "geometry": {"type": "Point", "coordinates": [4.839621732135176, 52.35514444151181]}, "properties": {"id": 18, "Unnamed: 0": 1450, "bag_openbareruimte_id": 363300000004031.0, "totaal_bijplaatsingen": 2318, "aantal_grofvuil": 1081, "stadsdeel": "Nieuw-West", "postcode": "1062KT", "adres": "Carnapstraat 14", "geometrie_origineel": "POINT (117694.91781749594 485390.2520165338)", "dumpplek": false, "aantal_handhavingen": 403}}, {"type": "Feature", "geometry": {"type": "Point", "coordinates": [4.968037424579903, 52.32393682403169]}, "properties": {"id": 19, "Unnamed: 0": 2627, "bag_openbareruimte_id": 363300000005774.0, "totaal_bijplaatsingen": 2270, "aantal_grofvuil": 1377, "stadsdeel": "Zuidoost", "postcode": "1103BH", "adres": "Gravestein 35", "geometrie_origineel": "POINT (126423.32082322644 481859.6602686059)", "dumpplek": false, "aantal_handhavingen": 182}}, {"type": "Feature", "geometry": {"type": "Point", "coordinates": [4.935057631634849, 52.36377725118376]}, "properties": {"id": 20, "Unnamed: 0": 1070, "bag_openbareruimte_id": 363300000003469.0, "totaal_bijplaatsingen": 2260, "aantal_grofvuil": 824, "stadsdeel": "Oost", "postcode": "1094HB", "adres": "Javastraat 87", "geometrie_origineel": "POINT (124202.5934372629 486305.92521016335)", "dumpplek": false, "aantal_handhavingen": 158}}, {"type": "Feature", "geometry": {"type": "Point", "coordinates": [4.888722831820678, 52.35181061140029]}, "properties": {"id": 21, "Unnamed: 0": 2284, "bag_openbareruimte_id": 363300000005234.0, "totaal_bijplaatsingen": 2257, "aantal_grofvuil": 1269, "stadsdeel": "Zuid", "postcode": "1072SN", "adres": "Van Ostadestraat 45A", "geometrie_origineel": "POINT (121037.43220968699 484995.1821580416)", "dumpplek": false, "aantal_handhavingen": 226}}, {"type": "Feature", "geometry": {"type": "Point", "coordinates": [4.927265391768599, 52.375515571119394]}, "properties": {"id": 22, "Unnamed: 0": 1670, "bag_openbareruimte_id": 363300000004363.0, "totaal_bijplaatsingen": 2218, "aantal_grofvuil": 1113, "stadsdeel": "Oost", "postcode": "1019HM", "adres": "Piet Heinkade 227", "geometrie_origineel": "POINT (123680.12805209242 487615.30825695134)", "dumpplek": false, "aantal_handhavingen": 572}}, {"type": "Feature", "geometry": {"type": "Point", "coordinates": [4.975048875787231, 52.31688360057445]}, "properties": {"id": 23, "Unnamed: 0": 1427, "bag_openbareruimte_id": 363300000003999.0, "totaal_bijplaatsingen": 2216, "aantal_grofvuil": 913, "stadsdeel": "Zuidoost", "postcode": "1104SL", "adres": "Kikkenstein 1014", "geometrie_origineel": "POINT (126896.86155168567 481072.16079695354)", "dumpplek": false, "aantal_handhavingen": 141}}, {"type": "Feature", "geometry": {"type": "Point", "coordinates": [4.81299334246082, 52.378001691418966]}, "properties": {"id": 24, "Unnamed: 0": 813, "bag_openbareruimte_id": 363300000003061.0, "totaal_bijplaatsingen": 2208, "aantal_grofvuil": 1102, "stadsdeel": "Nieuw-West", "postcode": "1064LB", "adres": "Burgemeester Van Leeuwenlaan 88", "geometrie_origineel": "POINT (115900.98527235516 487947.44118401804)", "dumpplek": false, "aantal_handhavingen": 110}}, {"type": "Feature", "geometry": {"type": "Point", "coordinates": [4.897606831952839, 52.3766752411936]}, "properties": {"id": 25, "Unnamed: 0": 890, "bag_openbareruimte_id": 363300000003187.0, "totaal_bijplaatsingen": 2179, "aantal_grofvuil": 82, "stadsdeel": "Centrum", "postcode": "Nederland", "adres": "Damrak 12", "geometrie_origineel": "POINT (121661.39967594774 487757.56751258386)", "dumpplek": true, "aantal_handhavingen": 23}}, {"type": "Feature", "geometry": {"type": "Point", "coordinates": [4.902997541713259, 52.34872227138332]}, "properties": {"id": 26, "Unnamed: 0": 580, "bag_openbareruimte_id": 363300000002703.0, "totaal_bijplaatsingen": 2166, "aantal_grofvuil": 908, "stadsdeel": "Zuid", "postcode": "1078AG", "adres": "Amstelkade 40", "geometrie_origineel": "POINT (122007.6919509077 484644.972495099)", "dumpplek": false, "aantal_handhavingen": 151}}, {"type": "Feature", "geometry": {"type": "Point", "coordinates": [4.841545467257712, 52.34999618388805]}, "properties": {"id": 27, "Unnamed: 0": 1880, "bag_openbareruimte_id": 363300000004667.0, "totaal_bijplaatsingen": 2165, "aantal_grofvuil": 939, "stadsdeel": "Nieuw-West", "postcode": "1062EP", "adres": "Rijswijkstraat 141", "geometrie_origineel": "POINT (117821.66173317778 484816.457046547)", "dumpplek": false, "aantal_handhavingen": 214}}, {"type": "Feature", "geometry": {"type": "Point", "coordinates": [4.952404215447404, 52.39681964210472]}, "properties": {"id": 28, "Unnamed: 0": 1171, "bag_openbareruimte_id": 363300000003622.0, "totaal_bijplaatsingen": 2138, "aantal_grofvuil": 1094, "stadsdeel": "Noord", "postcode": "1024KN", "adres": "IJdoornlaan 347", "geometrie_origineel": "POINT (125406.1814120074 489975.1126324338)", "dumpplek": false, "aantal_handhavingen": 180}}, {"type": "Feature", "geometry": {"type": "Point", "coordinates": [4.864486326005683, 52.36464014306808]}, "properties": {"id": 29, "Unnamed: 0": 767, "bag_openbareruimte_id": 363300000002985.0, "totaal_bijplaatsingen": 2133, "aantal_grofvuil": 1122, "stadsdeel": "West", "postcode": "1053PZ", "adres": "Borgerstraat 124", "geometrie_origineel": "POINT (119396.46358334145 486434.26075426023)", "dumpplek": false, "aantal_handhavingen": 182}}, {"type": "Feature", "geometry": {"type": "Point", "coordinates": [4.92763056531284, 52.36826338266289]}, "properties": {"id": 30, "Unnamed: 0": 742, "bag_openbareruimte_id": 363300000002951.0, "totaal_bijplaatsingen": 2133, "aantal_grofvuil": 1428, "stadsdeel": "Centrum", "postcode": "1018SB", "adres": "Tweede Coehoornstraat", "geometrie_origineel": "POINT (123699.87780965591 486808.24816689966)", "dumpplek": false, "aantal_handhavingen": 345}}, {"type": "Feature", "geometry": {"type": "Point", "coordinates": [4.97773214402855, 52.32208776306322]}, "properties": {"id": 31, "Unnamed: 0": 1262, "bag_openbareruimte_id": 363300000003766.0, "totaal_bijplaatsingen": 2118, "aantal_grofvuil": 1330, "stadsdeel": "Zuidoost", "postcode": "1103GT", "adres": "Grubbehoeve 231", "geometrie_origineel": "POINT (127083.09116170851 481650.1520222691)", "dumpplek": false, "aantal_handhavingen": 214}}, {"type": "Feature", "geometry": {"type": "Point", "coordinates": [4.907508731645547, 52.343188441411456]}, "properties": {"id": 32, "Unnamed: 0": 2311, "bag_openbareruimte_id": 363300000005265.0, "totaal_bijplaatsingen": 2108, "aantal_grofvuil": 1053, "stadsdeel": "Zuid", "postcode": "1079JC", "adres": "Vechtstraat 109", "geometrie_origineel": "POINT (122310.99232111586 484027.22058581497)", "dumpplek": false, "aantal_handhavingen": 273}}, {"type": "Feature", "geometry": {"type": "Point", "coordinates": [4.821610667173565, 52.38198344405624]}, "properties": {"id": 33, "Unnamed: 0": 2088, "bag_openbareruimte_id": 363300000004956.0, "totaal_bijplaatsingen": 2051, "aantal_grofvuil": 1082, "stadsdeel": "Nieuw-West", "postcode": "1063JP", "adres": "Slotermeerlaan 135", "geometrie_origineel": "POINT (116491.20317438216 488385.84701964917)", "dumpplek": false, "aantal_handhavingen": 106}}, {"type": "Feature", "geometry": {"type": "Point", "coordinates": [4.862355564156049, 52.36551885274624]}, "properties": {"id": 34, "Unnamed: 0": 989, "bag_openbareruimte_id": 363300000003347.0, "totaal_bijplaatsingen": 2034, "aantal_grofvuil": 1249, "stadsdeel": "West", "postcode": "1053CR", "adres": "Hasebroekstraat 101", "geometrie_origineel": "POINT (119252.04223427793 486533.0772105816)", "dumpplek": false, "aantal_handhavingen": 335}}, {"type": "Feature", "geometry": {"type": "Point", "coordinates": [4.958725674503371, 52.31126951425684]}, "properties": {"id": 35, "Unnamed: 0": 1269, "bag_openbareruimte_id": 363300000003778.0, "totaal_bijplaatsingen": 2016, "aantal_grofvuil": 1130, "stadsdeel": "Zuidoost", "postcode": "1102GB", "adres": "Haag en Veld 47", "geometrie_origineel": "POINT (125780.16831700674 480453.9773955705)", "dumpplek": false, "aantal_handhavingen": 111}}, {"type": "Feature", "geometry": {"type": "Point", "coordinates": [4.893775732279797, 52.4173318409072]}, "properties": {"id": 36, "Unnamed: 0": 1288, "bag_openbareruimte_id": 363300000003803.0, "totaal_bijplaatsingen": 2015, "aantal_grofvuil": 680, "stadsdeel": "Noord", "postcode": "1035EV", "adres": "Stellingweg 343", "geometrie_origineel": "POINT (121431.33243152226 492282.9373572641)", "dumpplek": false, "aantal_handhavingen": 120}}, {"type": "Feature", "geometry": {"type": "Point", "coordinates": [4.905706582023899, 52.39260242105447]}, "properties": {"id": 37, "Unnamed: 0": 946, "bag_openbareruimte_id": 363300000003280.0, "totaal_bijplaatsingen": 1993, "aantal_grofvuil": 974, "stadsdeel": "Noord", "postcode": "1031HH", "adres": "Distelweg 74A", "geometrie_origineel": "POINT (122224.71217896455 489525.984788346)", "dumpplek": false, "aantal_handhavingen": 90}}, {"type": "Feature", "geometry": {"type": "Point", "coordinates": [4.902968711824969, 52.363755241273246]}, "properties": {"id": 38, "Unnamed: 0": 578, "bag_openbareruimte_id": 363300000002701.0, "totaal_bijplaatsingen": 1978, "aantal_grofvuil": 440, "stadsdeel": "Centrum", "postcode": "1018EK", "adres": "Amstel 75", "geometrie_origineel": "POINT (122016.90222517055 486317.59542889235)", "dumpplek": true, "aantal_handhavingen": 376}}, {"type": "Feature", "geometry": {"type": "Point", "coordinates": [4.885512131948272, 52.366454041302006]}, "properties": {"id": 39, "Unnamed: 0": 1420, "bag_openbareruimte_id": 363300000003984.0, "totaal_bijplaatsingen": 1955, "aantal_grofvuil": 471, "stadsdeel": "Centrum", "postcode": "Nederland", "adres": "Keizersgracht 482", "geometrie_origineel": "POINT (120829.96086825605 486625.9590151852)", "dumpplek": true, "aantal_handhavingen": 537}}, {"type": "Feature", "geometry": {"type": "Point", "coordinates": [4.805527742506235, 52.37822601143802]}, "properties": {"id": 40, "Unnamed: 0": 943, "bag_openbareruimte_id": 363300000003270.0, "totaal_bijplaatsingen": 1944, "aantal_grofvuil": 991, "stadsdeel": "Nieuw-West", "postcode": "1067XP", "adres": "Dirk Sonoystraat 11", "geometrie_origineel": "POINT (115392.84765637494 487976.4538433088)", "dumpplek": false, "aantal_handhavingen": 118}}, {"type": "Feature", "geometry": {"type": "Point", "coordinates": [4.838513932247512, 52.36944244141062]}, "properties": {"id": 41, "Unnamed: 0": 1045, "bag_openbareruimte_id": 363300000003426.0, "totaal_bijplaatsingen": 1942, "aantal_grofvuil": 883, "stadsdeel": "Nieuw-West", "postcode": "1061XW", "adres": "Jan Evertsenstraat 401", "geometrie_origineel": "POINT (117631.49187461243 486981.6526789252)", "dumpplek": false, "aantal_handhavingen": 136}}, {"type": "Feature", "geometry": {"type": "Point", "coordinates": [4.891451532048152, 52.38457964115295]}, "properties": {"id": 42, "Unnamed: 0": 330, "bag_openbareruimte_id": 363300000002129.0, "totaal_bijplaatsingen": 1931, "aantal_grofvuil": 708, "stadsdeel": "Centrum", "postcode": "1013BH", "adres": "Westerdok 324", "geometrie_origineel": "POINT (121248.2823700681 488639.8860139478)", "dumpplek": false, "aantal_handhavingen": 105}}, {"type": "Feature", "geometry": {"type": "Point", "coordinates": [5.009300994462985, 52.34916311345592]}, "properties": {"id": 43, "Unnamed: 0": 2733, "bag_openbareruimte_id": 363300000006097.0, "totaal_bijplaatsingen": 1870, "aantal_grofvuil": 853, "stadsdeel": "Oost", "postcode": "1087LG", "adres": "Eva Besny\u00f6straat 571", "geometrie_origineel": "POINT (129251.07547708445 484650.9496589039)", "dumpplek": false, "aantal_handhavingen": 235}}, {"type": "Feature", "geometry": {"type": "Point", "coordinates": [4.947339595311695, 52.3565547437011]}, "properties": {"id": 44, "Unnamed: 0": 323, "bag_openbareruimte_id": 363300000002032.0, "totaal_bijplaatsingen": 1864, "aantal_grofvuil": 800, "stadsdeel": "Oost", "postcode": "1098XD", "adres": "Carolina MacGillavrylaan 1426", "geometrie_origineel": "POINT (125034.28001890481 485497.17833216663)", "dumpplek": false, "aantal_handhavingen": 236}}, {"type": "Feature", "geometry": {"type": "Point", "coordinates": [4.825689332246625, 52.35913444152119]}, "properties": {"id": 45, "Unnamed: 0": 850, "bag_openbareruimte_id": 363300000003123.0, "totaal_bijplaatsingen": 1863, "aantal_grofvuil": 904, "stadsdeel": "Nieuw-West", "postcode": "1065CA", "adres": "Comeniusstraat 553", "geometrie_origineel": "POINT (116749.19961458596 485841.4505051538)", "dumpplek": false, "aantal_handhavingen": 112}}, {"type": "Feature", "geometry": {"type": "Point", "coordinates": [4.891635731887483, 52.36314314130923]}, "properties": {"id": 46, "Unnamed: 0": 1422, "bag_openbareruimte_id": 363300000003990.0, "totaal_bijplaatsingen": 1850, "aantal_grofvuil": 559, "stadsdeel": "Centrumlocaties", "postcode": "Nederland", "adres": "kleine gartmanplantsoen12", "geometrie_origineel": "POINT (121244.51317363846 486254.70926859987)", "dumpplek": true, "aantal_handhavingen": 396}}, {"type": "Feature", "geometry": {"type": "Point", "coordinates": [4.920287681532854, 52.33821098141256]}, "properties": {"id": 47, "Unnamed: 0": 2785, "bag_openbareruimte_id": 363300011942849.0, "totaal_bijplaatsingen": 1835, "aantal_grofvuil": 926, "stadsdeel": "Oost", "postcode": "1096GG", "adres": "Amstelvlietstraat 101", "geometrie_origineel": "POINT (123178.24238494175 483467.72969797667)", "dumpplek": false, "aantal_handhavingen": 208}}, {"type": "Feature", "geometry": {"type": "Point", "coordinates": [4.850314532248506, 52.37892654130868]}, "properties": {"id": 48, "Unnamed: 0": 773, "bag_openbareruimte_id": 363300000002994.0, "totaal_bijplaatsingen": 1823, "aantal_grofvuil": 702, "stadsdeel": "West", "postcode": "1055EJ", "adres": "Bos en Lommerweg 234", "geometrie_origineel": "POINT (118442.97802464158 488030.860579751)", "dumpplek": false, "aantal_handhavingen": 167}}, {"type": "Feature", "geometry": {"type": "Point", "coordinates": [4.876000506179686, 52.35815031407648]}, "properties": {"id": 49, "Unnamed: 0": 2257, "bag_openbareruimte_id": 363300000005201.0, "totaal_bijplaatsingen": 1805, "aantal_grofvuil": 810, "stadsdeel": "Zuid", "postcode": "1071GG", "adres": "Van Eeghenstraat 28", "geometrie_origineel": "POINT (120175.61887890485 485706.59090008977)", "dumpplek": false, "aantal_handhavingen": 290}}, {"type": "Feature", "geometry": {"type": "Point", "coordinates": [4.861594894304058, 52.3748825226137]}, "properties": {"id": 50, "Unnamed: 0": 1059, "bag_openbareruimte_id": 363300000003451.0, "totaal_bijplaatsingen": 1804, "aantal_grofvuil": 679, "stadsdeel": "West", "postcode": "1056BJ", "adres": "Reinier Claeszenstraat 75", "geometrie_origineel": "POINT (119207.78895806562 487575.2805171099)", "dumpplek": false, "aantal_handhavingen": 155}}, {"type": "Feature", "geometry": {"type": "Point", "coordinates": [4.837173632214639, 52.36394034145443]}, "properties": {"id": 51, "Unnamed: 0": 1806, "bag_openbareruimte_id": 363300000004568.0, "totaal_bijplaatsingen": 1798, "aantal_grofvuil": 880, "stadsdeel": "Nieuw-West", "postcode": "1062JR", "adres": "Postjesweg 311", "geometrie_origineel": "POINT (117535.56590001826 486370.1672563436)", "dumpplek": false, "aantal_handhavingen": 197}}, {"type": "Feature", "geometry": {"type": "Point", "coordinates": [4.962354844250682, 52.29708710443115]}, "properties": {"id": 52, "Unnamed: 0": 2411, "bag_openbareruimte_id": 363300000005402.0, "totaal_bijplaatsingen": 1781, "aantal_grofvuil": 889, "stadsdeel": "Zuidoost", "postcode": "1106VB", "adres": "Opheusdenhof 170", "geometrie_origineel": "POINT (126018.40974358706 478874.5573458034)", "dumpplek": false, "aantal_handhavingen": 97}}, {"type": "Feature", "geometry": {"type": "Point", "coordinates": [4.859282066583835, 52.37207334398075]}, "properties": {"id": 53, "Unnamed: 0": 542, "bag_openbareruimte_id": 363300000002644.0, "totaal_bijplaatsingen": 1773, "aantal_grofvuil": 757, "stadsdeel": "West", "postcode": "1056ET", "adres": "Admiraal De Ruijterweg 97", "geometrie_origineel": "POINT (119048.01830808999 487263.8681720671)", "dumpplek": false, "aantal_handhavingen": 170}}, {"type": "Feature", "geometry": {"type": "Point", "coordinates": [4.840621332170241, 52.36068284146862]}, "properties": {"id": 54, "Unnamed: 0": 925, "bag_openbareruimte_id": 363300000003244.0, "totaal_bijplaatsingen": 1773, "aantal_grofvuil": 857, "stadsdeel": "Centrumlocaties", "postcode": "Nederland", "adres": "Derkinderenstraat 48", "geometrie_origineel": "POINT (117767.66376489564 486005.9532516357)", "dumpplek": false, "aantal_handhavingen": 114}}, {"type": "Feature", "geometry": {"type": "Point", "coordinates": [4.900293881747964, 52.35124375137233]}, "properties": {"id": 55, "Unnamed: 0": 1586, "bag_openbareruimte_id": 363300000004229.0, "totaal_bijplaatsingen": 1769, "aantal_grofvuil": 726, "stadsdeel": "Zuid", "postcode": "1073HD", "adres": "Lutmastraat 142", "geometrie_origineel": "POINT (121825.35966254768 484926.75297961687)", "dumpplek": false, "aantal_handhavingen": 144}}, {"type": "Feature", "geometry": {"type": "Point", "coordinates": [4.968260735268782, 52.37029989339651]}, "properties": {"id": 56, "Unnamed: 0": 2718, "bag_openbareruimte_id": 363300000006043.0, "totaal_bijplaatsingen": 1760, "aantal_grofvuil": 989, "stadsdeel": "Oost", "postcode": "postcode niet in CMS", "adres": "Kees Broekmanstraat 624", "geometrie_origineel": "POINT (126468.35809869207 487018.06654475874)", "dumpplek": false, "aantal_handhavingen": 233}}, {"type": "Feature", "geometry": {"type": "Point", "coordinates": [4.938268665451796, 52.35872723372205]}, "properties": {"id": 57, "Unnamed: 0": 2172, "bag_openbareruimte_id": 363300000005063.0, "totaal_bijplaatsingen": 1743, "aantal_grofvuil": 842, "stadsdeel": "Oost", "postcode": "1094NP", "adres": "Sumatrastraat 166", "geometrie_origineel": "POINT (124417.82678358568 485742.68493039854)", "dumpplek": false, "aantal_handhavingen": 169}}, {"type": "Feature", "geometry": {"type": "Point", "coordinates": [4.967320573782286, 52.297002953491486]}, "properties": {"id": 58, "Unnamed: 0": 2404, "bag_openbareruimte_id": 363300000005395.0, "totaal_bijplaatsingen": 1727, "aantal_grofvuil": 884, "stadsdeel": "Zuidoost", "postcode": "1106KK", "adres": "Millingenhof 140", "geometrie_origineel": "POINT (126357.09598377229 478863.2214889687)", "dumpplek": false, "aantal_handhavingen": 112}}, {"type": "Feature", "geometry": {"type": "Point", "coordinates": [4.953004562429233, 52.32151107288958]}, "properties": {"id": 59, "Unnamed: 0": 2788, "bag_openbareruimte_id": 363300011951159.0, "totaal_bijplaatsingen": 1727, "aantal_grofvuil": 904, "stadsdeel": "Zuidoost", "postcode": "1102MW", "adres": "Dennenrodepad 275", "geometrie_origineel": "POINT (125396.84786796637 481595.79706739314)", "dumpplek": false, "aantal_handhavingen": 314}}, {"type": "Feature", "geometry": {"type": "Point", "coordinates": [4.957319531077009, 52.3063380415447]}, "properties": {"id": 60, "Unnamed: 0": 2546, "bag_openbareruimte_id": 363300000005636.0, "totaal_bijplaatsingen": 1705, "aantal_grofvuil": 923, "stadsdeel": "Zuidoost", "postcode": "1102LA", "adres": "Hakfort 23", "geometrie_origineel": "POINT (125681.02487921718 479905.8590061787)", "dumpplek": false, "aantal_handhavingen": 73}}, {"type": "Feature", "geometry": {"type": "Point", "coordinates": [4.878760632006695, 52.36894934130253]}, "properties": {"id": 61, "Unnamed: 0": 651, "bag_openbareruimte_id": 363300000002818.0, "totaal_bijplaatsingen": 1703, "aantal_grofvuil": 343, "stadsdeel": "Centrum", "postcode": "1016TT", "adres": "Elandsgracht 109", "geometrie_origineel": "POINT (120372.07210560788 486906.7977757818)", "dumpplek": false, "aantal_handhavingen": 557}}, {"type": "Feature", "geometry": {"type": "Point", "coordinates": [4.87317809205736, 52.371333481300624]}, "properties": {"id": 62, "Unnamed: 0": 887, "bag_openbareruimte_id": 363300000003181.0, "totaal_bijplaatsingen": 1686, "aantal_grofvuil": 959, "stadsdeel": "West", "postcode": "1053ZB", "adres": "Da Costastraat 2", "geometrie_origineel": "POINT (119993.75505641413 487174.74600283947)", "dumpplek": false, "aantal_handhavingen": 271}}, {"type": "Feature", "geometry": {"type": "Point", "coordinates": [4.88983004183989, 52.355288311371744]}, "properties": {"id": 63, "Unnamed: 0": 1213, "bag_openbareruimte_id": 363300000003701.0, "totaal_bijplaatsingen": 1673, "aantal_grofvuil": 614, "stadsdeel": "Zuid", "postcode": "1072VT", "adres": "Gerard Doustraat 56A", "geometrie_origineel": "POINT (121115.52312083943 485381.6019125393)", "dumpplek": false, "aantal_handhavingen": 158}}, {"type": "Feature", "geometry": {"type": "Point", "coordinates": [4.932889431691839, 52.36969774114634]}, "properties": {"id": 64, "Unnamed: 0": 9, "bag_openbareruimte_id": 363300000000896.0, "totaal_bijplaatsingen": 1671, "aantal_grofvuil": 1051, "stadsdeel": "Centrum", "postcode": "1018AK", "adres": "Funenpark 10", "geometrie_origineel": "POINT (124059.03976792937 486965.5814319006)", "dumpplek": false, "aantal_handhavingen": 269}}, {"type": "Feature", "geometry": {"type": "Point", "coordinates": [4.917848241563092, 52.34033937140369]}, "properties": {"id": 65, "Unnamed: 0": 2784, "bag_openbareruimte_id": 363300011942846.0, "totaal_bijplaatsingen": 1663, "aantal_grofvuil": 774, "stadsdeel": "Oost", "postcode": "1096AC", "adres": "Korte Ouderkerkerdijk 5B", "geometrie_origineel": "POINT (123013.52217613895 483705.6133394321)", "dumpplek": false, "aantal_handhavingen": 316}}, {"type": "Feature", "geometry": {"type": "Point", "coordinates": [4.927112765714375, 52.367453343665495]}, "properties": {"id": 66, "Unnamed: 0": 878, "bag_openbareruimte_id": 363300000003169.0, "totaal_bijplaatsingen": 1648, "aantal_grofvuil": 848, "stadsdeel": "Centrum", "postcode": "1018AP", "adres": "Cruquiuskade 10", "geometrie_origineel": "POINT (123664.04028902546 486718.3443871253)", "dumpplek": false, "aantal_handhavingen": 126}}, {"type": "Feature", "geometry": {"type": "Point", "coordinates": [4.963989251010418, 52.30270834155306]}, "properties": {"id": 67, "Unnamed: 0": 2400, "bag_openbareruimte_id": 363300000005391.0, "totaal_bijplaatsingen": 1629, "aantal_grofvuil": 1091, "stadsdeel": "Zuidoost", "postcode": "1106NW", "adres": "Maarsenhof 169", "geometrie_origineel": "POINT (126133.55218216372 479499.3351675046)", "dumpplek": false, "aantal_handhavingen": 159}}, {"type": "Feature", "geometry": {"type": "Point", "coordinates": [4.982736364975168, 52.36220237342613]}, "properties": {"id": 68, "Unnamed: 0": 2735, "bag_openbareruimte_id": 363300000006103.0, "totaal_bijplaatsingen": 1625, "aantal_grofvuil": 700, "stadsdeel": "Oost", "postcode": "1086ZJ", "adres": "IJburglaan 399", "geometrie_origineel": "POINT (127449.16825616363 486111.5080176979)", "dumpplek": false, "aantal_handhavingen": 135}}, {"type": "Feature", "geometry": {"type": "Point", "coordinates": [4.899539865675427, 52.34292294415273]}, "properties": {"id": 69, "Unnamed: 0": 2237, "bag_openbareruimte_id": 363300000005172.0, "totaal_bijplaatsingen": 1616, "aantal_grofvuil": 707, "stadsdeel": "Zuid", "postcode": "postcode niet in CMS", "adres": "Uiterwaardenstraat 193", "geometrie_origineel": "POINT (121767.7582464503 484001.30422076356)", "dumpplek": false, "aantal_handhavingen": 207}}, {"type": "Feature", "geometry": {"type": "Point", "coordinates": [4.840194866460743, 52.34867604440336]}, "properties": {"id": 70, "Unnamed: 0": 2353, "bag_openbareruimte_id": 363300000005320.0, "totaal_bijplaatsingen": 1610, "aantal_grofvuil": 772, "stadsdeel": "Nieuw-West", "postcode": "postcode niet in CMS", "adres": "Voorburgstraat 256", "geometrie_origineel": "POINT (117728.53155169106 484670.2691462716)", "dumpplek": false, "aantal_handhavingen": 147}}, {"type": "Feature", "geometry": {"type": "Point", "coordinates": [4.87935733203454, 52.37316884127002]}, "properties": {"id": 71, "Unnamed: 0": 1713, "bag_openbareruimte_id": 363300000004424.0, "totaal_bijplaatsingen": 1586, "aantal_grofvuil": 555, "stadsdeel": "Centrumlocaties", "postcode": "Nederland", "adres": "Rozengracht 158", "geometrie_origineel": "POINT (120416.00019155609 487375.9867421019)", "dumpplek": true, "aantal_handhavingen": 258}}, {"type": "Feature", "geometry": {"type": "Point", "coordinates": [4.9596899143277895, 52.30015799440372]}, "properties": {"id": 72, "Unnamed: 0": 2407, "bag_openbareruimte_id": 363300000005398.0, "totaal_bijplaatsingen": 1581, "aantal_grofvuil": 1151, "stadsdeel": "Zuidoost", "postcode": "1106RT", "adres": "Nieuwlandhof 183", "geometrie_origineel": "POINT (125838.63429372756 479217.2988207866)", "dumpplek": false, "aantal_handhavingen": 208}}, {"type": "Feature", "geometry": {"type": "Point", "coordinates": [4.891277363636577, 52.35352918276122]}, "properties": {"id": 73, "Unnamed: 0": 466, "bag_openbareruimte_id": 363300000002545.0, "totaal_bijplaatsingen": 1575, "aantal_grofvuil": 744, "stadsdeel": "Zuid", "postcode": "1072TP", "adres": "Eerste Jan van der Heijdenstraat 121", "geometrie_origineel": "POINT (121212.78414109902 485185.2009840717)", "dumpplek": false, "aantal_handhavingen": 153}}, {"type": "Feature", "geometry": {"type": "Point", "coordinates": [4.803995432523745, 52.37937724143386]}, "properties": {"id": 74, "Unnamed: 0": 1732, "bag_openbareruimte_id": 363300000004452.0, "totaal_bijplaatsingen": 1564, "aantal_grofvuil": 709, "stadsdeel": "Nieuw-West", "postcode": "1067HZ", "adres": "Jan Bongastraat 2", "geometrie_origineel": "POINT (115289.5430433432 488105.38116824004)", "dumpplek": false, "aantal_handhavingen": 92}}, {"type": "Feature", "geometry": {"type": "Point", "coordinates": [4.849246432035311, 52.34930154152784]}, "properties": {"id": 75, "Unnamed: 0": 1877, "bag_openbareruimte_id": 363300000004659.0, "totaal_bijplaatsingen": 1555, "aantal_grofvuil": 685, "stadsdeel": "Zuid", "postcode": "1059XA", "adres": "Rietwijkerstraat 32", "geometrie_origineel": "POINT (118345.78482894116 484735.24735145894)", "dumpplek": false, "aantal_handhavingen": 103}}, {"type": "Feature", "geometry": {"type": "Point", "coordinates": [4.930030931925087, 52.398615740942375]}, "properties": {"id": 76, "Unnamed: 0": 2541, "bag_openbareruimte_id": 363300000005618.0, "totaal_bijplaatsingen": 1540, "aantal_grofvuil": 692, "stadsdeel": "Noord", "postcode": "1025TD", "adres": "Loenermark 317", "geometrie_origineel": "POINT (123884.6625692649 490184.3258848403)", "dumpplek": false, "aantal_handhavingen": 76}}, {"type": "Feature", "geometry": {"type": "Point", "coordinates": [4.895059957199309, 52.37327031577101]}, "properties": {"id": 77, "Unnamed: 0": 1993, "bag_openbareruimte_id": 363300000004817.0, "totaal_bijplaatsingen": 1537, "aantal_grofvuil": 282, "stadsdeel": "Centrum", "postcode": "Nederland", "adres": "Warmoesstraat 163", "geometrie_origineel": "POINT (121485.40220557923 487379.899545803)", "dumpplek": true, "aantal_handhavingen": 202}}, {"type": "Feature", "geometry": {"type": "Point", "coordinates": [4.908129666267803, 52.38942074347306]}, "properties": {"id": 78, "Unnamed: 0": 999, "bag_openbareruimte_id": 363300000003361.0, "totaal_bijplaatsingen": 1519, "aantal_grofvuil": 822, "stadsdeel": "Noord", "postcode": "1031VB", "adres": "Heimansweg 36", "geometrie_origineel": "POINT (122387.30806346658 489170.8867179344)", "dumpplek": false, "aantal_handhavingen": 75}}, {"type": "Feature", "geometry": {"type": "Point", "coordinates": [4.8736018720659615, 52.37282694128852]}, "properties": {"id": 79, "Unnamed: 0": 886, "bag_openbareruimte_id": 363300000003179.0, "totaal_bijplaatsingen": 1499, "aantal_grofvuil": 651, "stadsdeel": "West", "postcode": "1052SE", "adres": "Da Costakade 13", "geometrie_origineel": "POINT (120023.79264037925 487340.70808202116)", "dumpplek": false, "aantal_handhavingen": 156}}, {"type": "Feature", "geometry": {"type": "Point", "coordinates": [4.889717866710422, 52.40444091337262]}, "properties": {"id": 80, "Unnamed: 0": 2676, "bag_openbareruimte_id": 363300000005867.0, "totaal_bijplaatsingen": 1499, "aantal_grofvuil": 726, "stadsdeel": "Noord", "postcode": "1033SL", "adres": "ms. Oslofjordweg 703", "geometrie_origineel": "POINT (121145.42460305395 490850.53022579104)", "dumpplek": false, "aantal_handhavingen": 128}}, {"type": "Feature", "geometry": {"type": "Point", "coordinates": [4.894507038796169, 52.37523559196736]}, "properties": {"id": 81, "Unnamed: 0": 1343, "bag_openbareruimte_id": 363300000003873.0, "totaal_bijplaatsingen": 1489, "aantal_grofvuil": 17, "stadsdeel": "Centrum", "postcode": "Nederland", "adres": "Nieuwendijk 168", "geometrie_origineel": "POINT (121449.23594934985 487598.81812422915)", "dumpplek": true, "aantal_handhavingen": 5}}, {"type": "Feature", "geometry": {"type": "Point", "coordinates": [4.958586092337826, 52.31983438288336]}, "properties": {"id": 82, "Unnamed: 0": 8, "bag_openbareruimte_id": 363300000000893.0, "totaal_bijplaatsingen": 1478, "aantal_grofvuil": 885, "stadsdeel": "Zuidoost", "postcode": "1102JW", "adres": "Janusz Korczakplantsoen 1", "geometrie_origineel": "POINT (125776.28319892059 481406.98020925256)", "dumpplek": false, "aantal_handhavingen": 166}}, {"type": "Feature", "geometry": {"type": "Point", "coordinates": [4.854050532248664, 52.38190324127659]}, "properties": {"id": 83, "Unnamed: 0": 1426, "bag_openbareruimte_id": 363300000003998.0, "totaal_bijplaatsingen": 1461, "aantal_grofvuil": 812, "stadsdeel": "West", "postcode": "1055XR", "adres": "Kijkduinstraat 33", "geometrie_origineel": "POINT (118699.79712217362 488360.1788515286)", "dumpplek": false, "aantal_handhavingen": 139}}, {"type": "Feature", "geometry": {"type": "Point", "coordinates": [4.956140131740238, 52.39461234089845]}, "properties": {"id": 84, "Unnamed: 0": 2796, "bag_openbareruimte_id": 363300011951191.0, "totaal_bijplaatsingen": 1454, "aantal_grofvuil": 908, "stadsdeel": "Noord", "postcode": "1024HB", "adres": "Wieringerwaardstraat 38", "geometrie_origineel": "POINT (125658.99613441665 489728.00025852135)", "dumpplek": false, "aantal_handhavingen": 159}}, {"type": "Feature", "geometry": {"type": "Point", "coordinates": [4.936867586135328, 52.40317806312499]}, "properties": {"id": 85, "Unnamed: 0": 1266, "bag_openbareruimte_id": 363300000003774.0, "totaal_bijplaatsingen": 1443, "aantal_grofvuil": 814, "stadsdeel": "Noord", "postcode": "postcode niet in CMS", "adres": "H. Cleyndertweg 431", "geometrie_origineel": "POINT (124353.11753257675 490689.03441667836)", "dumpplek": false, "aantal_handhavingen": 239}}, {"type": "Feature", "geometry": {"type": "Point", "coordinates": [4.915076807035002, 52.362521493676816]}, "properties": {"id": 86, "Unnamed: 0": 1739, "bag_openbareruimte_id": 363300000004461.0, "totaal_bijplaatsingen": 1442, "aantal_grofvuil": 417, "stadsdeel": "Centrum", "postcode": "1018GW", "adres": "Sarphatistraat 370", "geometrie_origineel": "POINT (122840.72745973688 486174.8836848823)", "dumpplek": false, "aantal_handhavingen": 416}}, {"type": "Feature", "geometry": {"type": "Point", "coordinates": [4.893753311811459, 52.35458503136603]}, "properties": {"id": 87, "Unnamed: 0": 1738, "bag_openbareruimte_id": 363300000004460.0, "totaal_bijplaatsingen": 1436, "aantal_grofvuil": 524, "stadsdeel": "Zuid", "postcode": "1073CN", "adres": "Sarphatipark 1", "geometrie_origineel": "POINT (121382.26703784073 485301.52621791034)", "dumpplek": false, "aantal_handhavingen": 180}}, {"type": "Feature", "geometry": {"type": "Point", "coordinates": [4.855020896635588, 52.37218444400294]}, "properties": {"id": 88, "Unnamed: 0": 1604, "bag_openbareruimte_id": 363300000004257.0, "totaal_bijplaatsingen": 1433, "aantal_grofvuil": 579, "stadsdeel": "West", "postcode": "1056DR", "adres": "Marco Polostraat 266", "geometrie_origineel": "POINT (118757.9231976845 487278.351920576)", "dumpplek": false, "aantal_handhavingen": 95}}, {"type": "Feature", "geometry": {"type": "Point", "coordinates": [4.843924572293363, 52.37990548131934]}, "properties": {"id": 89, "Unnamed: 0": 1783, "bag_openbareruimte_id": 363300000004527.0, "totaal_bijplaatsingen": 1422, "aantal_grofvuil": 737, "stadsdeel": "West", "postcode": "1061GD", "adres": "Sinjeur Semeynsstraat 29", "geometrie_origineel": "POINT (118008.70557867986 488143.0229145527)", "dumpplek": false, "aantal_handhavingen": 66}}, {"type": "Feature", "geometry": {"type": "Point", "coordinates": [4.948115862565784, 52.326806382838654]}, "properties": {"id": 90, "Unnamed: 0": 2528, "bag_openbareruimte_id": 363300000005596.0, "totaal_bijplaatsingen": 1418, "aantal_grofvuil": 811, "stadsdeel": "Zuidoost", "postcode": "1102XA", "adres": "Dalsteindreef 434", "geometrie_origineel": "POINT (125067.1139176205 482186.9731693394)", "dumpplek": false, "aantal_handhavingen": 92}}, {"type": "Feature", "geometry": {"type": "Point", "coordinates": [4.916509886478572, 52.40999972314688]}, "properties": {"id": 91, "Unnamed: 0": 2381, "bag_openbareruimte_id": 363300000005361.0, "totaal_bijplaatsingen": 1418, "aantal_grofvuil": 825, "stadsdeel": "Noord", "postcode": "1034RL", "adres": "Binnenvaart & Westerlengte", "geometrie_origineel": "POINT (122972.654109999 491456.8446202981)", "dumpplek": false, "aantal_handhavingen": 66}}, {"type": "Feature", "geometry": {"type": "Point", "coordinates": [4.820288882939642, 52.38068154740218]}, "properties": {"id": 92, "Unnamed: 0": 870, "bag_openbareruimte_id": 363300000003156.0, "totaal_bijplaatsingen": 1417, "aantal_grofvuil": 795, "stadsdeel": "Nieuw-West", "postcode": "1063KT", "adres": "Bernard Loderstraat 15", "geometrie_origineel": "POINT (116400.07671168227 488241.6977415922)", "dumpplek": false, "aantal_handhavingen": 74}}, {"type": "Feature", "geometry": {"type": "Point", "coordinates": [4.887765131787377, 52.3465453414415]}, "properties": {"id": 93, "Unnamed: 0": 927, "bag_openbareruimte_id": 363300000003247.0, "totaal_bijplaatsingen": 1414, "aantal_grofvuil": 661, "stadsdeel": "Zuid", "postcode": "1078JJ", "adres": "Deurloostraat 108", "geometrie_origineel": "POINT (120968.14622767842 484409.8042434447)", "dumpplek": false, "aantal_handhavingen": 145}}, {"type": "Feature", "geometry": {"type": "Point", "coordinates": [4.878040932177961, 52.39137070114072]}, "properties": {"id": 94, "Unnamed: 0": 2111, "bag_openbareruimte_id": 363300000004983.0, "totaal_bijplaatsingen": 1413, "aantal_grofvuil": 498, "stadsdeel": "West", "postcode": "1013TG", "adres": "Spaarndammerstraat 143A", "geometrie_origineel": "POINT (120340.5849149956 489401.81233949057)", "dumpplek": false, "aantal_handhavingen": 167}}, {"type": "Feature", "geometry": {"type": "Point", "coordinates": [4.910465415563418, 52.34409057407628]}, "properties": {"id": 95, "Unnamed: 0": 2226, "bag_openbareruimte_id": 363300000005154.0, "totaal_bijplaatsingen": 1413, "aantal_grofvuil": 762, "stadsdeel": "Zuid", "postcode": "1079TX", "adres": "Trompenburgstraat 4", "geometrie_origineel": "POINT (122513.1346417036 484126.2649180997)", "dumpplek": false, "aantal_handhavingen": 220}}, {"type": "Feature", "geometry": {"type": "Point", "coordinates": [4.918138612052587, 52.40622840091995]}, "properties": {"id": 96, "Unnamed: 0": 2152, "bag_openbareruimte_id": 363300000005035.0, "totaal_bijplaatsingen": 1410, "aantal_grofvuil": 798, "stadsdeel": "Noord", "postcode": "1034KC", "adres": "Ankerplaats 22", "geometrie_origineel": "POINT (123080.75945688713 491036.51333454024)", "dumpplek": false, "aantal_handhavingen": 116}}, {"type": "Feature", "geometry": {"type": "Point", "coordinates": [4.822575632436997, 52.38236264136065]}, "properties": {"id": 97, "Unnamed: 0": 2261, "bag_openbareruimte_id": 363300000005206.0, "totaal_bijplaatsingen": 1410, "aantal_grofvuil": 938, "stadsdeel": "Nieuw-West", "postcode": "1063HX", "adres": "David Vosstraat 59", "geometrie_origineel": "POINT (116557.23124724138 488427.5251831775)", "dumpplek": false, "aantal_handhavingen": 59}}, {"type": "Feature", "geometry": {"type": "Point", "coordinates": [4.899062677746501, 52.35261342328679]}, "properties": {"id": 98, "Unnamed: 0": 1721, "bag_openbareruimte_id": 363300000004434.0, "totaal_bijplaatsingen": 1409, "aantal_grofvuil": 733, "stadsdeel": "Zuid", "postcode": "1073GA", "adres": "Rustenburgerstraat 225", "geometrie_origineel": "POINT (121742.50130259857 485079.7105156692)", "dumpplek": false, "aantal_handhavingen": 161}}, {"type": "Feature", "geometry": {"type": "Point", "coordinates": [4.887795132037132, 52.38020734119508]}, "properties": {"id": 99, "Unnamed: 0": 1817, "bag_openbareruimte_id": 363300000004580.0, "totaal_bijplaatsingen": 1405, "aantal_grofvuil": 354, "stadsdeel": "Centrumlocaties", "postcode": "Nederland", "adres": "Prinsengracht 8", "geometrie_origineel": "POINT (120995.9984231352 488155.11902005173)", "dumpplek": true, "aantal_handhavingen": 496}}, {"type": "Feature", "geometry": {"type": "Point", "coordinates": [4.926491205901204, 52.37944277350586]}, "properties": {"id": 100, "Unnamed: 0": 2170, "bag_openbareruimte_id": 363300000005061.0, "totaal_bijplaatsingen": 1402, "aantal_grofvuil": 477, "stadsdeel": "Oost", "postcode": "1019RH", "adres": "Sumatrakade 1157", "geometrie_origineel": "POINT (123630.18761429339 488052.5970300663)", "dumpplek": false, "aantal_handhavingen": 165}}, {"type": "Feature", "geometry": {"type": "Point", "coordinates": [4.935814691611958, 52.36130644119983]}, "properties": {"id": 101, "Unnamed: 0": 1177, "bag_openbareruimte_id": 363300000003637.0, "totaal_bijplaatsingen": 1393, "aantal_grofvuil": 580, "stadsdeel": "Oost", "postcode": "1094PB", "adres": "Insulindeweg 55A", "geometrie_origineel": "POINT (124252.44706221612 486030.6937300376)", "dumpplek": false, "aantal_handhavingen": 121}}, {"type": "Feature", "geometry": {"type": "Point", "coordinates": [4.904229131901111, 52.37498924118751]}, "properties": {"id": 102, "Unnamed: 0": 1814, "bag_openbareruimte_id": 363300000004577.0, "totaal_bijplaatsingen": 1385, "aantal_grofvuil": 423, "stadsdeel": "Centrum", "postcode": "Nederland", "adres": "Prins Hendrikkade 55", "geometrie_origineel": "POINT (122111.08298384154 487566.9518841286)", "dumpplek": true, "aantal_handhavingen": 302}}, {"type": "Feature", "geometry": {"type": "Point", "coordinates": [4.926269665214063, 52.36871078451716]}, "properties": {"id": 103, "Unnamed: 0": 852, "bag_openbareruimte_id": 363300000003128.0, "totaal_bijplaatsingen": 1383, "aantal_grofvuil": 853, "stadsdeel": "Centrum", "postcode": "1018NG", "adres": "Conradstraat 8", "geometrie_origineel": "POINT (123607.50864621831 486858.61612920294)", "dumpplek": false, "aantal_handhavingen": 174}}, {"type": "Feature", "geometry": {"type": "Point", "coordinates": [4.944212012491768, 52.31863845298058]}, "properties": {"id": 104, "Unnamed: 0": 2570, "bag_openbareruimte_id": 363300000005677.0, "totaal_bijplaatsingen": 1379, "aantal_grofvuil": 823, "stadsdeel": "Zuidoost", "postcode": "1102TR", "adres": "Boeninlaan 308", "geometrie_origineel": "POINT (124795.43568989939 481279.8093952224)", "dumpplek": false, "aantal_handhavingen": 104}}, {"type": "Feature", "geometry": {"type": "Point", "coordinates": [4.916978531893961, 52.384141241084926]}, "properties": {"id": 105, "Unnamed: 0": 1635, "bag_openbareruimte_id": 363300000004297.0, "totaal_bijplaatsingen": 1364, "aantal_grofvuil": 347, "stadsdeel": "Noord", "postcode": "1021NT", "adres": "Bankwerkerij 177", "geometrie_origineel": "POINT (122985.8710203916 488579.52489437844)", "dumpplek": false, "aantal_handhavingen": 89}}, {"type": "Feature", "geometry": {"type": "Point", "coordinates": [4.839239632235193, 52.36835614141648]}, "properties": {"id": 106, "Unnamed: 0": 1063, "bag_openbareruimte_id": 363300000003457.0, "totaal_bijplaatsingen": 1358, "aantal_grofvuil": 753, "stadsdeel": "Nieuw-West", "postcode": "1061XH", "adres": "Jan Voermanstraat 42", "geometrie_origineel": "POINT (117680.00106588025 486860.41421230143)", "dumpplek": false, "aantal_handhavingen": 92}}, {"type": "Feature", "geometry": {"type": "Point", "coordinates": [4.875079431987557, 52.363444741353]}, "properties": {"id": 107, "Unnamed: 0": 462, "bag_openbareruimte_id": 363300000002541.0, "totaal_bijplaatsingen": 1356, "aantal_grofvuil": 561, "stadsdeel": "West", "postcode": "1054BT", "adres": "Eerste Constantijn Huygensstraat 59", "geometrie_origineel": "POINT (120117.03635135456 486296.105926135)", "dumpplek": false, "aantal_handhavingen": 142}}, {"type": "Feature", "geometry": {"type": "Point", "coordinates": [4.913244732093554, 52.40783264092197]}, "properties": {"id": 108, "Unnamed: 0": 419, "bag_openbareruimte_id": 363300000002473.0, "totaal_bijplaatsingen": 1342, "aantal_grofvuil": 679, "stadsdeel": "Noord", "postcode": "1034AB", "adres": "Banne Buikslootlaan 97", "geometrie_origineel": "POINT (122748.90902022184 491217.17461285106)", "dumpplek": false, "aantal_handhavingen": 57}}, {"type": "Feature", "geometry": {"type": "Point", "coordinates": [4.898264646639467, 52.36504222496245]}, "properties": {"id": 109, "Unnamed: 0": 1109, "bag_openbareruimte_id": 363300000003533.0, "totaal_bijplaatsingen": 1337, "aantal_grofvuil": 275, "stadsdeel": "Centrum", "postcode": "Nederland", "adres": "Herengracht 564", "geometrie_origineel": "POINT (121697.46013674038 486462.94012765464)", "dumpplek": true, "aantal_handhavingen": 433}}, {"type": "Feature", "geometry": {"type": "Point", "coordinates": [4.854417632264484, 52.38431884125797]}, "properties": {"id": 110, "Unnamed: 0": 2104, "bag_openbareruimte_id": 363300000004974.0, "totaal_bijplaatsingen": 1337, "aantal_grofvuil": 833, "stadsdeel": "West", "postcode": "1055ZN", "adres": "Solebaystraat 77", "geometrie_origineel": "POINT (118726.7671869825 488628.76193386345)", "dumpplek": false, "aantal_handhavingen": 112}}, {"type": "Feature", "geometry": {"type": "Point", "coordinates": [4.992097791264361, 52.35965435105489]}, "properties": {"id": 111, "Unnamed: 0": 42, "bag_openbareruimte_id": 363300000001011.0, "totaal_bijplaatsingen": 1336, "aantal_grofvuil": 597, "stadsdeel": "Oost", "postcode": "1087AV", "adres": "Erich Salomonstraat 49", "geometrie_origineel": "POINT (128085.28354867926 485824.4891589464)", "dumpplek": false, "aantal_handhavingen": 102}}, {"type": "Feature", "geometry": {"type": "Point", "coordinates": [4.906428166278882, 52.388820843490734]}, "properties": {"id": 112, "Unnamed: 0": 1842, "bag_openbareruimte_id": 363300000004614.0, "totaal_bijplaatsingen": 1334, "aantal_grofvuil": 517, "stadsdeel": "Noord", "postcode": "1031XS", "adres": "Ranonkelkade 27", "geometrie_origineel": "POINT (122271.03792701793 489104.9068461118)", "dumpplek": false, "aantal_handhavingen": 42}}, {"type": "Feature", "geometry": {"type": "Point", "coordinates": [4.9626364616857, 52.39248784089582]}, "properties": {"id": 113, "Unnamed: 0": 2364, "bag_openbareruimte_id": 363300000005341.0, "totaal_bijplaatsingen": 1331, "aantal_grofvuil": 652, "stadsdeel": "Noord", "postcode": "1024EM", "adres": "Waalenburgsingel 159", "geometrie_origineel": "POINT (126099.78959721007 489489.00934217626)", "dumpplek": false, "aantal_handhavingen": 78}}, {"type": "Feature", "geometry": {"type": "Point", "coordinates": [4.993518192507954, 52.35940023210557]}, "properties": {"id": 114, "Unnamed: 0": 44, "bag_openbareruimte_id": 363300000001015.0, "totaal_bijplaatsingen": 1328, "aantal_grofvuil": 577, "stadsdeel": "Oost", "postcode": "1087DJ", "adres": "Daguerrestraat 119", "geometrie_origineel": "POINT (128181.8872765069 485795.6885452597)", "dumpplek": false, "aantal_handhavingen": 133}}, {"type": "Feature", "geometry": {"type": "Point", "coordinates": [4.891599532552459, 52.36632890887848]}, "properties": {"id": 115, "Unnamed: 0": 1853, "bag_openbareruimte_id": 363300000004628.0, "totaal_bijplaatsingen": 1321, "aantal_grofvuil": 403, "stadsdeel": "Centrum", "postcode": "Nederland", "adres": "Reguliersdwarsstraat & Geelvincksteeg", "geometrie_origineel": "POINT (121244.4713710525 486609.1837812906)", "dumpplek": true, "aantal_handhavingen": 192}}, {"type": "Feature", "geometry": {"type": "Point", "coordinates": [4.909000265731727, 52.354242643946186]}, "properties": {"id": 116, "Unnamed: 0": 2010, "bag_openbareruimte_id": 363300000004836.0, "totaal_bijplaatsingen": 1317, "aantal_grofvuil": 703, "stadsdeel": "Oost", "postcode": "1091EH", "adres": "Weesperzijde 63", "geometrie_origineel": "POINT (122420.74661164284 485256.46878633485)", "dumpplek": false, "aantal_handhavingen": 146}}, {"type": "Feature", "geometry": {"type": "Point", "coordinates": [4.955537491199061, 52.3214519914382]}, "properties": {"id": 117, "Unnamed: 0": 2719, "bag_openbareruimte_id": 363300000006044.0, "totaal_bijplaatsingen": 1311, "aantal_grofvuil": 703, "stadsdeel": "Zuidoost", "postcode": "1102MX", "adres": "Darlingstraat 785", "geometrie_origineel": "POINT (125569.4990330797 481588.1923100702)", "dumpplek": false, "aantal_handhavingen": 178}}, {"type": "Feature", "geometry": {"type": "Point", "coordinates": [4.909563416229252, 52.38797904348458]}, "properties": {"id": 118, "Unnamed: 0": 1066, "bag_openbareruimte_id": 363300000003462.0, "totaal_bijplaatsingen": 1308, "aantal_grofvuil": 675, "stadsdeel": "Noord", "postcode": "postcode niet in CMS", "adres": "Jasmijnstraat 40", "geometrie_origineel": "POINT (122483.85133153954 489009.83377557027)", "dumpplek": false, "aantal_handhavingen": 59}}, {"type": "Feature", "geometry": {"type": "Point", "coordinates": [4.836095232171815, 52.35729344150586]}, "properties": {"id": 119, "Unnamed: 0": 2781, "bag_openbareruimte_id": 363300011831077.0, "totaal_bijplaatsingen": 1303, "aantal_grofvuil": 689, "stadsdeel": "Nieuw-West", "postcode": "1062HZ", "adres": "Willem Frogerstraat 10", "geometrie_origineel": "POINT (117456.48977216809 485631.1755571468)", "dumpplek": false, "aantal_handhavingen": 193}}, {"type": "Feature", "geometry": {"type": "Point", "coordinates": [4.960674331699923, 52.392829240898784]}, "properties": {"id": 120, "Unnamed: 0": 1614, "bag_openbareruimte_id": 363300000004269.0, "totaal_bijplaatsingen": 1285, "aantal_grofvuil": 632, "stadsdeel": "Noord", "postcode": "1024JS", "adres": "Volendammerweg 212", "geometrie_origineel": "POINT (125966.45266067045 489527.77918551414)", "dumpplek": false, "aantal_handhavingen": 87}}, {"type": "Feature", "geometry": {"type": "Point", "coordinates": [5.004643651154487, 52.35498284105428]}, "properties": {"id": 121, "Unnamed: 0": 41, "bag_openbareruimte_id": 363300000001010.0, "totaal_bijplaatsingen": 1285, "aantal_grofvuil": 602, "stadsdeel": "Oost", "postcode": "1087HJ", "adres": "Bert Haanstrakade 558", "geometrie_origineel": "POINT (128937.16072220154 485300.13639513147)", "dumpplek": false, "aantal_handhavingen": 153}}, {"type": "Feature", "geometry": {"type": "Point", "coordinates": [4.815767642439524, 52.37732314141622]}, "properties": {"id": 122, "Unnamed: 0": 1561, "bag_openbareruimte_id": 363300000004196.0, "totaal_bijplaatsingen": 1277, "aantal_grofvuil": 428, "stadsdeel": "Nieuw-West", "postcode": "1064VA", "adres": "Karel van de Woestijnestraat 1", "geometrie_origineel": "POINT (116089.29403984139 487870.4507150093)", "dumpplek": false, "aantal_handhavingen": 55}}, {"type": "Feature", "geometry": {"type": "Point", "coordinates": [4.902989501661736, 52.341753441434456]}, "properties": {"id": 123, "Unnamed: 0": 1428, "bag_openbareruimte_id": 363300000004000.0, "totaal_bijplaatsingen": 1273, "aantal_grofvuil": 664, "stadsdeel": "Zuid", "postcode": "1079GD", "adres": "Kinderdijkstraat 55", "geometrie_origineel": "POINT (122001.96453207568 483869.6065579599)", "dumpplek": false, "aantal_handhavingen": 121}}, {"type": "Feature", "geometry": {"type": "Point", "coordinates": [4.920176926451124, 52.41104687311204]}, "properties": {"id": 124, "Unnamed: 0": 2398, "bag_openbareruimte_id": 363300000005385.0, "totaal_bijplaatsingen": 1272, "aantal_grofvuil": 766, "stadsdeel": "Noord", "postcode": "1034RG", "adres": "Zeevaarthof 109", "geometrie_origineel": "POINT (123222.91811461654 491571.74021427624)", "dumpplek": false, "aantal_handhavingen": 73}}, {"type": "Feature", "geometry": {"type": "Point", "coordinates": [4.914933085554353, 52.34704174401128]}, "properties": {"id": 125, "Unnamed: 0": 2252, "bag_openbareruimte_id": 363300000005193.0, "totaal_bijplaatsingen": 1272, "aantal_grofvuil": 625, "stadsdeel": "Oost", "postcode": "1097LV", "adres": "Van der Kunstraat 5", "geometrie_origineel": "POINT (122819.7156503967 484452.6268894522)", "dumpplek": false, "aantal_handhavingen": 72}}, {"type": "Feature", "geometry": {"type": "Point", "coordinates": [5.004361861121215, 52.35029589108964]}, "properties": {"id": 126, "Unnamed: 0": 384, "bag_openbareruimte_id": 363300000002393.0, "totaal_bijplaatsingen": 1267, "aantal_grofvuil": 425, "stadsdeel": "Oost", "postcode": "1087MJ", "adres": "Emmy Andriessestraat 22", "geometrie_origineel": "POINT (128915.20906335574 484778.7520548655)", "dumpplek": false, "aantal_handhavingen": 83}}, {"type": "Feature", "geometry": {"type": "Point", "coordinates": [4.854882266342948, 52.3796852829018]}, "properties": {"id": 127, "Unnamed: 0": 2326, "bag_openbareruimte_id": 363300000005286.0, "totaal_bijplaatsingen": 1266, "aantal_grofvuil": 613, "stadsdeel": "West", "postcode": "1055LM", "adres": "Vier Heemskinderenstraat 50", "geometrie_origineel": "POINT (118754.61289811006 488112.9859342189)", "dumpplek": false, "aantal_handhavingen": 124}}, {"type": "Feature", "geometry": {"type": "Point", "coordinates": [4.943986152510156, 52.31970281296617]}, "properties": {"id": 128, "Unnamed: 0": 2565, "bag_openbareruimte_id": 363300000005672.0, "totaal_bijplaatsingen": 1263, "aantal_grofvuil": 808, "stadsdeel": "Zuidoost", "postcode": "1102VM", "adres": "Alfred D\u00f6blinstraat 84", "geometrie_origineel": "POINT (124780.75995079782 481398.3265833652)", "dumpplek": false, "aantal_handhavingen": 83}}, {"type": "Feature", "geometry": {"type": "Point", "coordinates": [4.956556784540022, 52.311998494258894]}, "properties": {"id": 129, "Unnamed: 0": 1133, "bag_openbareruimte_id": 363300000003568.0, "totaal_bijplaatsingen": 1262, "aantal_grofvuil": 607, "stadsdeel": "Zuidoost", "postcode": "postcode niet in CMS", "adres": "Hofgeest 146", "geometrie_origineel": "POINT (125632.74510580322 480535.96155125275)", "dumpplek": false, "aantal_handhavingen": 65}}, {"type": "Feature", "geometry": {"type": "Point", "coordinates": [4.914829631961315, 52.39144654103742]}, "properties": {"id": 130, "Unnamed: 0": 1300, "bag_openbareruimte_id": 363300000003818.0, "totaal_bijplaatsingen": 1261, "aantal_grofvuil": 521, "stadsdeel": "Noord", "postcode": "1032GE", "adres": "Mosveld 24", "geometrie_origineel": "POINT (122844.8685249605 489393.29006916523)", "dumpplek": false, "aantal_handhavingen": 76}}, {"type": "Feature", "geometry": {"type": "Point", "coordinates": [4.954004264544803, 52.31026253429677]}, "properties": {"id": 131, "Unnamed: 0": 2547, "bag_openbareruimte_id": 363300000005637.0, "totaal_bijplaatsingen": 1252, "aantal_grofvuil": 715, "stadsdeel": "Zuidoost", "postcode": "1102PC", "adres": "Hoptille 151", "geometrie_origineel": "POINT (125457.527823312 480343.85187930695)", "dumpplek": false, "aantal_handhavingen": 62}}, {"type": "Feature", "geometry": {"type": "Point", "coordinates": [4.976573664392115, 52.31814469406367]}, "properties": {"id": 132, "Unnamed: 0": 1498, "bag_openbareruimte_id": 363300000004102.0, "totaal_bijplaatsingen": 1238, "aantal_grofvuil": 781, "stadsdeel": "Zuidoost", "postcode": "1104CA", "adres": "Kruitberg 3021", "geometrie_origineel": "POINT (127001.62438867509 481211.8831675475)", "dumpplek": false, "aantal_handhavingen": 109}}, {"type": "Feature", "geometry": {"type": "Point", "coordinates": [4.847263832228543, 52.37382374135439]}, "properties": {"id": 133, "Unnamed: 0": 1939, "bag_openbareruimte_id": 363300000004748.0, "totaal_bijplaatsingen": 1234, "aantal_grofvuil": 593, "stadsdeel": "West", "postcode": "1056PR", "adres": "Orteliusstraat 328", "geometrie_origineel": "POINT (118231.02721796365 487464.6521389317)", "dumpplek": false, "aantal_handhavingen": 107}}, {"type": "Feature", "geometry": {"type": "Point", "coordinates": [4.935298721896015, 52.3988983709255]}, "properties": {"id": 134, "Unnamed: 0": 800, "bag_openbareruimte_id": 363300000003041.0, "totaal_bijplaatsingen": 1233, "aantal_grofvuil": 439, "stadsdeel": "Noord", "postcode": "1025EZ", "adres": "Buikslotermeerplein 142", "geometrie_origineel": "POINT (124243.38247098192 490213.52343410405)", "dumpplek": false, "aantal_handhavingen": 64}}, {"type": "Feature", "geometry": {"type": "Point", "coordinates": [4.9049671316586645, 52.34292374142038]}, "properties": {"id": 135, "Unnamed: 0": 1168, "bag_openbareruimte_id": 363300000003617.0, "totaal_bijplaatsingen": 1231, "aantal_grofvuil": 545, "stadsdeel": "Zuid", "postcode": "1079VV", "adres": "Hunzestraat 73", "geometrie_origineel": "POINT (122137.59999452598 483998.91860693455)", "dumpplek": false, "aantal_handhavingen": 111}}, {"type": "Feature", "geometry": {"type": "Point", "coordinates": [4.910636075163234, 52.38765569494]}, "properties": {"id": 136, "Unnamed: 0": 1637, "bag_openbareruimte_id": 363300000004299.0, "totaal_bijplaatsingen": 1230, "aantal_grofvuil": 658, "stadsdeel": "Noord", "postcode": "1031GA", "adres": "Meidoornplein 13", "geometrie_origineel": "POINT (122556.6369105902 488973.37610032526)", "dumpplek": false, "aantal_handhavingen": 43}}, {"type": "Feature", "geometry": {"type": "Point", "coordinates": [4.907146921695803, 52.349685661364745]}, "properties": {"id": 137, "Unnamed: 0": 1387, "bag_openbareruimte_id": 363300000003931.0, "totaal_bijplaatsingen": 1225, "aantal_grofvuil": 605, "stadsdeel": "Zuid", "postcode": "1074ST", "adres": "Jozef Isra\u00eblskade 415", "geometrie_origineel": "POINT (122291.12455306726 484750.2812537634)", "dumpplek": false, "aantal_handhavingen": 85}}, {"type": "Feature", "geometry": {"type": "Point", "coordinates": [4.859725166614825, 52.37450210394543]}, "properties": {"id": 138, "Unnamed: 0": 712, "bag_openbareruimte_id": 363300000002916.0, "totaal_bijplaatsingen": 1224, "aantal_grofvuil": 642, "stadsdeel": "West", "postcode": "1056HP", "adres": "Bestev\u00e2erstraat 62", "geometrie_origineel": "POINT (119080.16036189465 487533.8791383652)", "dumpplek": false, "aantal_handhavingen": 63}}, {"type": "Feature", "geometry": {"type": "Point", "coordinates": [4.910075265746165, 52.35606670391539]}, "properties": {"id": 139, "Unnamed: 0": 475, "bag_openbareruimte_id": 363300000002555.0, "totaal_bijplaatsingen": 1220, "aantal_grofvuil": 671, "stadsdeel": "Oost", "postcode": "1091HC", "adres": "Eerste Oosterparkstraat 50", "geometrie_origineel": "POINT (122495.3198434024 485458.93614384584)", "dumpplek": false, "aantal_handhavingen": 138}}, {"type": "Feature", "geometry": {"type": "Point", "coordinates": [4.890905411051705, 52.41728271672117]}, "properties": {"id": 140, "Unnamed: 0": 2155, "bag_openbareruimte_id": 363300000005040.0, "totaal_bijplaatsingen": 1211, "aantal_grofvuil": 498, "stadsdeel": "Noord", "postcode": "1035EK", "adres": "Tjasker 1", "geometrie_origineel": "POINT (121236.02504035842 492278.8053862959)", "dumpplek": false, "aantal_handhavingen": 62}}, {"type": "Feature", "geometry": {"type": "Point", "coordinates": [4.900733825621063, 52.34021092418306]}, "properties": {"id": 141, "Unnamed: 0": 1810, "bag_openbareruimte_id": 363300000004572.0, "totaal_bijplaatsingen": 1209, "aantal_grofvuil": 519, "stadsdeel": "Zuid", "postcode": "1079MC", "adres": "President Kennedylaan 17", "geometrie_origineel": "POINT (121847.09560434555 483699.011592838)", "dumpplek": false, "aantal_handhavingen": 188}}, {"type": "Feature", "geometry": {"type": "Point", "coordinates": [4.832575246607314, 52.3525260443934]}, "properties": {"id": 142, "Unnamed: 0": 1036, "bag_openbareruimte_id": 363300000003411.0, "totaal_bijplaatsingen": 1192, "aantal_grofvuil": 431, "stadsdeel": "Nieuw-West", "postcode": "1065DZ", "adres": "Jacques Veltmanstraat 1083", "geometrie_origineel": "POINT (117212.63997093982 485102.5736886898)", "dumpplek": false, "aantal_handhavingen": 183}}, {"type": "Feature", "geometry": {"type": "Point", "coordinates": [4.804113021464717, 52.35729886211471]}, "properties": {"id": 143, "Unnamed: 0": 2291, "bag_openbareruimte_id": 363300000005242.0, "totaal_bijplaatsingen": 1190, "aantal_grofvuil": 646, "stadsdeel": "Nieuw-West", "postcode": "1068GX", "adres": "Jan Celestraat 1 (grof hoek)", "geometrie_origineel": "POINT (115277.78447350356 485648.8264760521)", "dumpplek": true, "aantal_handhavingen": 115}}, {"type": "Feature", "geometry": {"type": "Point", "coordinates": [4.828962746587119, 52.34829519447064]}, "properties": {"id": 144, "Unnamed: 0": 1098, "bag_openbareruimte_id": 363300000003519.0, "totaal_bijplaatsingen": 1185, "aantal_grofvuil": 604, "stadsdeel": "Nieuw-West", "postcode": "postcode niet in CMS", "adres": "Helena Mercierstraat 2", "geometrie_origineel": "POINT (116962.89493609773 484633.73011722026)", "dumpplek": false, "aantal_handhavingen": 132}}, {"type": "Feature", "geometry": {"type": "Point", "coordinates": [4.944492534863201, 52.32412273415987]}, "properties": {"id": 145, "Unnamed: 0": 2573, "bag_openbareruimte_id": 363300000005680.0, "totaal_bijplaatsingen": 1181, "aantal_grofvuil": 596, "stadsdeel": "Zuidoost", "postcode": "1102XE", "adres": "Charlotte Bront\u00e9straat 24", "geometrie_origineel": "POINT (124818.28848810939 481889.88622091565)", "dumpplek": false, "aantal_handhavingen": 52}}, {"type": "Feature", "geometry": {"type": "Point", "coordinates": [4.869366002044999, 52.366640691345474]}, "properties": {"id": 146, "Unnamed: 0": 2212, "bag_openbareruimte_id": 363300000005132.0, "totaal_bijplaatsingen": 1176, "aantal_grofvuil": 678, "stadsdeel": "West", "postcode": "1053EE", "adres": "Kinkerstraat 136", "geometrie_origineel": "POINT (119730.41612071788 486654.461239115)", "dumpplek": false, "aantal_handhavingen": 159}}, {"type": "Feature", "geometry": {"type": "Point", "coordinates": [4.9035100666329, 52.41007484321894]}, "properties": {"id": 147, "Unnamed: 0": 322, "bag_openbareruimte_id": 363300000001985.0, "totaal_bijplaatsingen": 1175, "aantal_grofvuil": 606, "stadsdeel": "Noord", "postcode": "1036KJ", "adres": "Boomgaardlaan 87", "geometrie_origineel": "POINT (122088.17568435513 491471.0284710193)", "dumpplek": false, "aantal_handhavingen": 48}}, {"type": "Feature", "geometry": {"type": "Point", "coordinates": [4.85404063212948, 52.36584914139381]}, "properties": {"id": 148, "Unnamed: 0": 1160, "bag_openbareruimte_id": 363300000003607.0, "totaal_bijplaatsingen": 1160, "aantal_grofvuil": 553, "stadsdeel": "West", "postcode": "1057RX", "adres": "Hudsonstraat 45", "geometrie_origineel": "POINT (118685.98155975163 486573.95983250096)", "dumpplek": false, "aantal_handhavingen": 82}}, {"type": "Feature", "geometry": {"type": "Point", "coordinates": [4.82056521245124, 52.38269246136388]}, "properties": {"id": 149, "Unnamed: 0": 1344, "bag_openbareruimte_id": 363300000003874.0, "totaal_bijplaatsingen": 1157, "aantal_grofvuil": 762, "stadsdeel": "Nieuw-West", "postcode": "1063JC", "adres": "Nieuwenhuysenstraat 31", "geometrie_origineel": "POINT (116420.64062856682 488465.29029286007)", "dumpplek": false, "aantal_handhavingen": 58}}, {"type": "Feature", "geometry": {"type": "Point", "coordinates": [4.881616522149364, 52.39036404113809]}, "properties": {"id": 150, "Unnamed: 0": 1362, "bag_openbareruimte_id": 363300000003899.0, "totaal_bijplaatsingen": 1154, "aantal_grofvuil": 700, "stadsdeel": "West", "postcode": "1013RJ", "adres": "Nova Zemblastraat 373", "geometrie_origineel": "POINT (120583.19568884063 489288.10370200244)", "dumpplek": false, "aantal_handhavingen": 126}}, {"type": "Feature", "geometry": {"type": "Point", "coordinates": [4.903627861754648, 52.35481028133698]}, "properties": {"id": 151, "Unnamed: 0": 2141, "bag_openbareruimte_id": 363300000005023.0, "totaal_bijplaatsingen": 1153, "aantal_grofvuil": 502, "stadsdeel": "Zuid", "postcode": "1074XJ", "adres": "Sint Willibrordusstraat 31", "geometrie_origineel": "POINT (122055.15868125629 485322.05403264775)", "dumpplek": false, "aantal_handhavingen": 126}}, {"type": "Feature", "geometry": {"type": "Point", "coordinates": [4.806569452512375, 52.379876831423104]}, "properties": {"id": 152, "Unnamed: 0": 961, "bag_openbareruimte_id": 363300000003303.0, "totaal_bijplaatsingen": 1147, "aantal_grofvuil": 513, "stadsdeel": "Nieuw-West", "postcode": "1067CH", "adres": "Dr. H. Colijnstraat 176", "geometrie_origineel": "POINT (115465.24977910868 488159.55937747087)", "dumpplek": false, "aantal_handhavingen": 129}}, {"type": "Feature", "geometry": {"type": "Point", "coordinates": [4.86870863207582, 52.3702695413208]}, "properties": {"id": 153, "Unnamed: 0": 728, "bag_openbareruimte_id": 363300000002935.0, "totaal_bijplaatsingen": 1146, "aantal_grofvuil": 463, "stadsdeel": "West", "postcode": "1053VA", "adres": "Bilderdijkkade 11", "geometrie_origineel": "POINT (119688.53230680016 487058.53730478697)", "dumpplek": false, "aantal_handhavingen": 72}}, {"type": "Feature", "geometry": {"type": "Point", "coordinates": [4.836475412206473, 52.36228236146842]}, "properties": {"id": 154, "Unnamed: 0": 1057, "bag_openbareruimte_id": 363300000003446.0, "totaal_bijplaatsingen": 1143, "aantal_grofvuil": 424, "stadsdeel": "Nieuw-West", "postcode": "1062BK", "adres": "Jan Tooropstraat 15A", "geometrie_origineel": "POINT (117486.60662585453 486186.0575737958)", "dumpplek": false, "aantal_handhavingen": 55}}, {"type": "Feature", "geometry": {"type": "Point", "coordinates": [4.914622242087828, 52.40815368091575]}, "properties": {"id": 155, "Unnamed: 0": 722, "bag_openbareruimte_id": 363300000002929.0, "totaal_bijplaatsingen": 1141, "aantal_grofvuil": 640, "stadsdeel": "Noord", "postcode": "1034DA", "adres": "Bezaanjachtplein 20", "geometrie_origineel": "POINT (122842.8751968639 491252.28255817096)", "dumpplek": false, "aantal_handhavingen": 84}}, {"type": "Feature", "geometry": {"type": "Point", "coordinates": [4.86198501665939, 52.37926929386832]}, "properties": {"id": 156, "Unnamed: 0": 2050, "bag_openbareruimte_id": 363300000004893.0, "totaal_bijplaatsingen": 1133, "aantal_grofvuil": 526, "stadsdeel": "West", "postcode": "postcode niet in CMS", "adres": "Willem de Zwijgerlaan 269", "geometrie_origineel": "POINT (119237.89210053757 488063.1729177747)", "dumpplek": false, "aantal_handhavingen": 124}}, {"type": "Feature", "geometry": {"type": "Point", "coordinates": [4.872712864194002, 52.37629548253136]}, "properties": {"id": 157, "Unnamed: 0": 1702, "bag_openbareruimte_id": 363300000004411.0, "totaal_bijplaatsingen": 1130, "aantal_grofvuil": 783, "stadsdeel": "West", "postcode": "1052XH", "adres": "Eerste Hugo de Grootstraat 35", "geometrie_origineel": "POINT (119965.99193508198 487727.0576481606)", "dumpplek": false, "aantal_handhavingen": 104}}, {"type": "Feature", "geometry": {"type": "Point", "coordinates": [4.96074550168266, 52.39058582091509]}, "properties": {"id": 158, "Unnamed: 0": 1123, "bag_openbareruimte_id": 363300000003557.0, "totaal_bijplaatsingen": 1118, "aantal_grofvuil": 618, "stadsdeel": "Noord", "postcode": "1024JX", "adres": "Hilversumstraat 115", "geometrie_origineel": "POINT (125969.82815465043 489278.13889110705)", "dumpplek": false, "aantal_handhavingen": 86}}, {"type": "Feature", "geometry": {"type": "Point", "coordinates": [4.9486121644161365, 52.32477145318549]}, "properties": {"id": 159, "Unnamed: 0": 2575, "bag_openbareruimte_id": 363300000005682.0, "totaal_bijplaatsingen": 1118, "aantal_grofvuil": 679, "stadsdeel": "Zuidoost", "postcode": "1102ZM", "adres": "Dani\u00ebl Defoelaan 164", "geometrie_origineel": "POINT (125099.57706739998 481960.357199515)", "dumpplek": false, "aantal_handhavingen": 77}}, {"type": "Feature", "geometry": {"type": "Point", "coordinates": [4.782219532489571, 52.35750124165293]}, "properties": {"id": 160, "Unnamed: 0": 2001, "bag_openbareruimte_id": 363300000004826.0, "totaal_bijplaatsingen": 1117, "aantal_grofvuil": 525, "stadsdeel": "Nieuw-West", "postcode": "1069VM", "adres": "Hoogheemraadweg 25", "geometrie_origineel": "POINT (113786.53514987267 485683.568211458)", "dumpplek": false, "aantal_handhavingen": 39}}, {"type": "Feature", "geometry": {"type": "Point", "coordinates": [4.820189644859429, 52.3794969427763]}, "properties": {"id": 161, "Unnamed: 0": 1043, "bag_openbareruimte_id": 363300000003424.0, "totaal_bijplaatsingen": 1112, "aantal_grofvuil": 435, "stadsdeel": "Nieuw-West", "postcode": "1063KX", "adres": "Slotermeerlaan 103", "geometrie_origineel": "POINT (116392.28860344594 488109.9483501852)", "dumpplek": false, "aantal_handhavingen": 56}}, {"type": "Feature", "geometry": {"type": "Point", "coordinates": [4.83132083237343, 52.380714641348426]}, "properties": {"id": 162, "Unnamed: 0": 917, "bag_openbareruimte_id": 363300000003230.0, "totaal_bijplaatsingen": 1108, "aantal_grofvuil": 583, "stadsdeel": "Centrumlocaties", "postcode": "Nederland", "adres": "De Tourton Bruynsstraat 3", "geometrie_origineel": "POINT (117151.23370065438 488239.5606685907)", "dumpplek": false, "aantal_handhavingen": 68}}, {"type": "Feature", "geometry": {"type": "Point", "coordinates": [4.911909595743042, 52.35731398388824]}, "properties": {"id": 163, "Unnamed: 0": 743, "bag_openbareruimte_id": 363300000002952.0, "totaal_bijplaatsingen": 1094, "aantal_grofvuil": 629, "stadsdeel": "Oost", "postcode": "1091CN", "adres": "Blasiusstraat 93", "geometrie_origineel": "POINT (122621.19338191202 485596.8910195809)", "dumpplek": false, "aantal_handhavingen": 120}}, {"type": "Feature", "geometry": {"type": "Point", "coordinates": [4.882347143355705, 52.327351853194216]}, "properties": {"id": 164, "Unnamed: 0": 2262, "bag_openbareruimte_id": 363300000005208.0, "totaal_bijplaatsingen": 1089, "aantal_grofvuil": 497, "stadsdeel": "Zuid", "postcode": "1083CM", "adres": "Van Heenvlietlaan 202", "geometrie_origineel": "POINT (120584.09473043804 482276.8522992286)", "dumpplek": false, "aantal_handhavingen": 161}}, {"type": "Feature", "geometry": {"type": "Point", "coordinates": [4.914075116442876, 52.4057277632185]}, "properties": {"id": 165, "Unnamed: 0": 920, "bag_openbareruimte_id": 363300000003234.0, "totaal_bijplaatsingen": 1084, "aantal_grofvuil": 662, "stadsdeel": "Noord", "postcode": "1034HE", "adres": "Dekschuitstraat 101", "geometrie_origineel": "POINT (122803.88355712824 490982.6082280756)", "dumpplek": false, "aantal_handhavingen": 45}}, {"type": "Feature", "geometry": {"type": "Point", "coordinates": [4.915963621687651, 52.355636341296645]}, "properties": {"id": 166, "Unnamed: 0": 2363, "bag_openbareruimte_id": 363300000005335.0, "totaal_bijplaatsingen": 1084, "aantal_grofvuil": 521, "stadsdeel": "Oost", "postcode": "1091VA", "adres": "Vrolikstraat 247C", "geometrie_origineel": "POINT (122896.1521014784 485408.4284005765)", "dumpplek": false, "aantal_handhavingen": 140}}, {"type": "Feature", "geometry": {"type": "Point", "coordinates": [4.853508642022284, 52.35094131150411]}, "properties": {"id": 167, "Unnamed: 0": 2313, "bag_openbareruimte_id": 363300000005267.0, "totaal_bijplaatsingen": 1082, "aantal_grofvuil": 564, "stadsdeel": "Zuid", "postcode": "1075SK", "adres": "Zeilstraat 54", "geometrie_origineel": "POINT (118637.53386576794 484915.5449845708)", "dumpplek": false, "aantal_handhavingen": 106}}, {"type": "Feature", "geometry": {"type": "Point", "coordinates": [4.791335067201451, 52.360009184520266]}, "properties": {"id": 168, "Unnamed: 0": 1940, "bag_openbareruimte_id": 363300000004749.0, "totaal_bijplaatsingen": 1082, "aantal_grofvuil": 600, "stadsdeel": "Nieuw-West", "postcode": "1069GA", "adres": "Osdorper Ban 953", "geometrie_origineel": "POINT (114409.79844418104 485957.46220865584)", "dumpplek": false, "aantal_handhavingen": 82}}, {"type": "Feature", "geometry": {"type": "Point", "coordinates": [4.919082631865004, 52.3819330410952]}, "properties": {"id": 169, "Unnamed: 0": 2602, "bag_openbareruimte_id": 363300000005734.0, "totaal_bijplaatsingen": 1081, "aantal_grofvuil": 583, "stadsdeel": "Noord", "postcode": "1021PC", "adres": "Motorwal 10", "geometrie_origineel": "POINT (123127.53481366935 488332.905425921)", "dumpplek": false, "aantal_handhavingen": 79}}, {"type": "Feature", "geometry": {"type": "Point", "coordinates": [4.842773632304441, 52.38048534131824]}, "properties": {"id": 170, "Unnamed: 0": 916, "bag_openbareruimte_id": 363300000003228.0, "totaal_bijplaatsingen": 1080, "aantal_grofvuil": 510, "stadsdeel": "West", "postcode": "1061GP", "adres": "De Schaapherderstraat 19", "geometrie_origineel": "POINT (117930.82514499105 488208.12792106956)", "dumpplek": false, "aantal_handhavingen": 42}}, {"type": "Feature", "geometry": {"type": "Point", "coordinates": [4.800312522522151, 52.37625174146676]}, "properties": {"id": 171, "Unnamed: 0": 1353, "bag_openbareruimte_id": 363300000003884.0, "totaal_bijplaatsingen": 1079, "aantal_grofvuil": 478, "stadsdeel": "Nieuw-West", "postcode": "1067JV", "adres": "Nolensstraat 23", "geometrie_origineel": "POINT (115035.96258444135 487759.6550235034)", "dumpplek": false, "aantal_handhavingen": 46}}, {"type": "Feature", "geometry": {"type": "Point", "coordinates": [4.918339966107898, 52.38679894345147]}, "properties": {"id": 172, "Unnamed: 0": 2525, "bag_openbareruimte_id": 363300000005591.0, "totaal_bijplaatsingen": 1076, "aantal_grofvuil": 599, "stadsdeel": "Noord", "postcode": "1021CH", "adres": "Zwanenplein 19", "geometrie_origineel": "POINT (123080.47313604275 488874.629677271)", "dumpplek": false, "aantal_handhavingen": 76}}, {"type": "Feature", "geometry": {"type": "Point", "coordinates": [4.865625521928264, 52.34789501149288]}, "properties": {"id": 173, "Unnamed: 0": 1912, "bag_openbareruimte_id": 363300000004712.0, "totaal_bijplaatsingen": 1076, "aantal_grofvuil": 327, "stadsdeel": "Zuid", "postcode": "1076AH", "adres": "Olympiaplein 82", "geometrie_origineel": "POINT (119460.64833172693 484570.59672217636)", "dumpplek": false, "aantal_handhavingen": 56}}, {"type": "Feature", "geometry": {"type": "Point", "coordinates": [4.852160364265615, 52.36480358281317]}, "properties": {"id": 174, "Unnamed: 0": 2290, "bag_openbareruimte_id": 363300000005241.0, "totaal_bijplaatsingen": 1075, "aantal_grofvuil": 599, "stadsdeel": "West", "postcode": "1057PV", "adres": "Van Spilbergenstraat 11", "geometrie_origineel": "POINT (118557.05845007891 486458.5720804926)", "dumpplek": false, "aantal_handhavingen": 101}}, {"type": "Feature", "geometry": {"type": "Point", "coordinates": [4.896847431709535, 52.3432934414402]}, "properties": {"id": 175, "Unnamed: 0": 1707, "bag_openbareruimte_id": 363300000004416.0, "totaal_bijplaatsingen": 1074, "aantal_grofvuil": 428, "stadsdeel": "Zuid", "postcode": "1078NV", "adres": "Rooseveltlaan 186", "geometrie_origineel": "POINT (121584.56118695193 484043.76442446164)", "dumpplek": false, "aantal_handhavingen": 96}}, {"type": "Feature", "geometry": {"type": "Point", "coordinates": [4.89793993192118, 52.37268934122182]}, "properties": {"id": 176, "Unnamed: 0": 1900, "bag_openbareruimte_id": 363300000004693.0, "totaal_bijplaatsingen": 1069, "aantal_grofvuil": 321, "stadsdeel": "Centrum", "postcode": "Nederland", "adres": "Oudezijds Achterburgwal 104", "geometrie_origineel": "POINT (121681.08745847135 487313.9305704181)", "dumpplek": true, "aantal_handhavingen": 104}}, {"type": "Feature", "geometry": {"type": "Point", "coordinates": [4.924062031745655, 52.36989194116956]}, "properties": {"id": 177, "Unnamed: 0": 1926, "bag_openbareruimte_id": 363300000004729.0, "totaal_bijplaatsingen": 1068, "aantal_grofvuil": 413, "stadsdeel": "Centrum", "postcode": "1018MR", "adres": "Oostenburgervoorstraat 28", "geometrie_origineel": "POINT (123457.99644092703 486990.99391862744)", "dumpplek": false, "aantal_handhavingen": 73}}, {"type": "Feature", "geometry": {"type": "Point", "coordinates": [4.917611562063576, 52.40727644091382]}, "properties": {"id": 178, "Unnamed: 0": 2555, "bag_openbareruimte_id": 363300000005651.0, "totaal_bijplaatsingen": 1067, "aantal_grofvuil": 657, "stadsdeel": "Noord", "postcode": "1034DL", "adres": "Banneplein 51", "geometrie_origineel": "POINT (123045.65058278755 491153.3547821712)", "dumpplek": false, "aantal_handhavingen": 33}}, {"type": "Feature", "geometry": {"type": "Point", "coordinates": [4.8712273319466695, 52.35485744142648]}, "properties": {"id": 179, "Unnamed: 0": 2302, "bag_openbareruimte_id": 363300000005253.0, "totaal_bijplaatsingen": 1066, "aantal_grofvuil": 495, "stadsdeel": "Zuid", "postcode": "1071JJ", "adres": "Cornelis Schuytstraat 34", "geometrie_origineel": "POINT (119847.85480850068 485342.52165783354)", "dumpplek": false, "aantal_handhavingen": 78}}, {"type": "Feature", "geometry": {"type": "Point", "coordinates": [4.831379212231237, 52.36157804148768]}, "properties": {"id": 180, "Unnamed: 0": 1020, "bag_openbareruimte_id": 363300000003393.0, "totaal_bijplaatsingen": 1064, "aantal_grofvuil": 393, "stadsdeel": "Nieuw-West", "postcode": "1065VN", "adres": "Jacob Geelstraat 25", "geometrie_origineel": "POINT (117138.87810454838 486110.34332167346)", "dumpplek": false, "aantal_handhavingen": 48}}, {"type": "Feature", "geometry": {"type": "Point", "coordinates": [4.927709338110947, 52.33644521650192]}, "properties": {"id": 181, "Unnamed: 0": 1268, "bag_openbareruimte_id": 363300000003776.0, "totaal_bijplaatsingen": 1064, "aantal_grofvuil": 585, "stadsdeel": "Oost", "postcode": "1096AN", "adres": "H.J.E. Wenckebachweg 6", "geometrie_origineel": "POINT (123682.80040526652 483268.03419999254)", "dumpplek": false, "aantal_handhavingen": 66}}, {"type": "Feature", "geometry": {"type": "Point", "coordinates": [4.916089351691267, 52.356223901291976]}, "properties": {"id": 182, "Unnamed: 0": 523, "bag_openbareruimte_id": 363300000002611.0, "totaal_bijplaatsingen": 1061, "aantal_grofvuil": 583, "stadsdeel": "Oost", "postcode": "1091KA", "adres": "Derde Oosterparkstraat 64", "geometrie_origineel": "POINT (122905.14244688288 485473.74631998176)", "dumpplek": false, "aantal_handhavingen": 121}}, {"type": "Feature", "geometry": {"type": "Point", "coordinates": [4.862121266389675, 52.36127439411124]}, "properties": {"id": 183, "Unnamed: 0": 2046, "bag_openbareruimte_id": 363300000004888.0, "totaal_bijplaatsingen": 1060, "aantal_grofvuil": 605, "stadsdeel": "West", "postcode": "postcode niet in CMS", "adres": "Wilhelminastraat 121", "geometrie_origineel": "POINT (119232.66269016956 486060.94321557996)", "dumpplek": false, "aantal_handhavingen": 130}}, {"type": "Feature", "geometry": {"type": "Point", "coordinates": [4.98410414087687, 52.30093182151065]}, "properties": {"id": 184, "Unnamed: 0": 2458, "bag_openbareruimte_id": 363300000005475.0, "totaal_bijplaatsingen": 1051, "aantal_grofvuil": 457, "stadsdeel": "Zuidoost", "postcode": "1106DD", "adres": "Vianenstraat 2", "geometrie_origineel": "POINT (127504.43074894568 479293.8584470989)", "dumpplek": false, "aantal_handhavingen": 82}}, {"type": "Feature", "geometry": {"type": "Point", "coordinates": [4.831530566787476, 52.36384674424608]}, "properties": {"id": 185, "Unnamed: 0": 1884, "bag_openbareruimte_id": 363300000004673.0, "totaal_bijplaatsingen": 1049, "aantal_grofvuil": 492, "stadsdeel": "Nieuw-West", "postcode": "1065XT", "adres": "Robert Fruinlaan 8", "geometrie_origineel": "POINT (117151.12316574933 486362.6854865504)", "dumpplek": false, "aantal_handhavingen": 73}}, {"type": "Feature", "geometry": {"type": "Point", "coordinates": [4.913357831991411, 52.39430414102062]}, "properties": {"id": 186, "Unnamed: 0": 1873, "bag_openbareruimte_id": 363300000004654.0, "totaal_bijplaatsingen": 1049, "aantal_grofvuil": 487, "stadsdeel": "Noord", "postcode": "1032JG", "adres": "Heggerankweg 2", "geometrie_origineel": "POINT (122746.76140049477 489711.89123261825)", "dumpplek": false, "aantal_handhavingen": 56}}, {"type": "Feature", "geometry": {"type": "Point", "coordinates": [4.989502013901417, 52.29542530430386]}, "properties": {"id": 187, "Unnamed: 0": 2643, "bag_openbareruimte_id": 363300000005795.0, "totaal_bijplaatsingen": 1048, "aantal_grofvuil": 628, "stadsdeel": "Zuidoost", "postcode": "1107AD", "adres": "Wethouder De Roosplein 47", "geometrie_origineel": "POINT (127869.25858946602 478679.1589025097)", "dumpplek": false, "aantal_handhavingen": 75}}, {"type": "Feature", "geometry": {"type": "Point", "coordinates": [4.918315791687744, 52.35752794127621]}, "properties": {"id": 188, "Unnamed: 0": 506, "bag_openbareruimte_id": 363300000002592.0, "totaal_bijplaatsingen": 1032, "aantal_grofvuil": 467, "stadsdeel": "Oost", "postcode": "1092BC", "adres": "Tweede Oosterparkstraat 135A", "geometrie_origineel": "POINT (123057.75653847885 485617.8540359881)", "dumpplek": false, "aantal_handhavingen": 98}}, {"type": "Feature", "geometry": {"type": "Point", "coordinates": [4.911058592079903, 52.404295170954015]}, "properties": {"id": 189, "Unnamed: 0": 2327, "bag_openbareruimte_id": 363300000005287.0, "totaal_bijplaatsingen": 1030, "aantal_grofvuil": 630, "stadsdeel": "Noord", "postcode": "1034XH", "adres": "Klipperstraat 1", "geometrie_origineel": "POINT (122597.56580057618 490824.55704330717)", "dumpplek": false, "aantal_handhavingen": 64}}, {"type": "Feature", "geometry": {"type": "Point", "coordinates": [4.925612523821003, 52.35583415243908]}, "properties": {"id": 190, "Unnamed: 0": 1813, "bag_openbareruimte_id": 363300000004575.0, "totaal_bijplaatsingen": 1027, "aantal_grofvuil": 410, "stadsdeel": "Oost", "postcode": "1092EX", "adres": "Pretoriusstraat 33", "geometrie_origineel": "POINT (123553.62931556799 485426.2074906517)", "dumpplek": false, "aantal_handhavingen": 111}}, {"type": "Feature", "geometry": {"type": "Point", "coordinates": [4.908402231665155, 52.34655354138423]}, "properties": {"id": 191, "Unnamed: 0": 2361, "bag_openbareruimte_id": 363300000005332.0, "totaal_bijplaatsingen": 1023, "aantal_grofvuil": 474, "stadsdeel": "Zuid", "postcode": "1079KD", "adres": "Vrijheidslaan 43", "geometrie_origineel": "POINT (122374.35270223339 484401.2276401865)", "dumpplek": false, "aantal_handhavingen": 116}}, {"type": "Feature", "geometry": {"type": "Point", "coordinates": [4.944845631584202, 52.36478484114907]}, "properties": {"id": 192, "Unnamed: 0": 1321, "bag_openbareruimte_id": 363300000003849.0, "totaal_bijplaatsingen": 1019, "aantal_grofvuil": 424, "stadsdeel": "Oost", "postcode": "1095VD", "adres": "Niasstraat 54A", "geometrie_origineel": "POINT (124869.96924753913 486413.918886514)", "dumpplek": false, "aantal_handhavingen": 77}}, {"type": "Feature", "geometry": {"type": "Point", "coordinates": [4.9297659251097325, 52.40109992105416]}, "properties": {"id": 193, "Unnamed: 0": 2780, "bag_openbareruimte_id": 363300011290897.0, "totaal_bijplaatsingen": 1017, "aantal_grofvuil": 581, "stadsdeel": "Noord", "postcode": "1022LA", "adres": "Elzenhagensingel 857", "geometrie_origineel": "POINT (123868.37121006982 490460.8393796894)", "dumpplek": false, "aantal_handhavingen": 98}}, {"type": "Feature", "geometry": {"type": "Point", "coordinates": [4.965134265291328, 52.36932526342736]}, "properties": {"id": 194, "Unnamed: 0": 2520, "bag_openbareruimte_id": 363300000005582.0, "totaal_bijplaatsingen": 1015, "aantal_grofvuil": 725, "stadsdeel": "Oost", "postcode": "1095KG", "adres": "Zuiderzeeweg 18", "geometrie_origineel": "POINT (126254.80384235244 486910.86117707565)", "dumpplek": false, "aantal_handhavingen": 108}}, {"type": "Feature", "geometry": {"type": "Point", "coordinates": [4.8496251664770655, 52.35725851423496]}, "properties": {"id": 195, "Unnamed: 0": 586, "bag_openbareruimte_id": 363300000002712.0, "totaal_bijplaatsingen": 1006, "aantal_grofvuil": 553, "stadsdeel": "Zuid", "postcode": "1058HT", "adres": "Andreas Schelfhoutstraat 65", "geometrie_origineel": "POINT (118378.15630161388 485620.36694587156)", "dumpplek": false, "aantal_handhavingen": 116}}, {"type": "Feature", "geometry": {"type": "Point", "coordinates": [4.9306939319497545, 52.40242444091261]}, "properties": {"id": 196, "Unnamed: 0": 2779, "bag_openbareruimte_id": 363300011290895.0, "totaal_bijplaatsingen": 1003, "aantal_grofvuil": 596, "stadsdeel": "Noord", "postcode": "1022LA", "adres": "Elzenhagensingel 373", "geometrie_origineel": "POINT (123932.45592644294 490607.8124421124)", "dumpplek": false, "aantal_handhavingen": 160}}, {"type": "Feature", "geometry": {"type": "Point", "coordinates": [4.988755420834348, 52.29894446151248]}, "properties": {"id": 197, "Unnamed: 0": 2464, "bag_openbareruimte_id": 363300000005482.0, "totaal_bijplaatsingen": 1000, "aantal_grofvuil": 559, "stadsdeel": "Zuidoost", "postcode": "1106DT", "adres": "Wamelplein 169", "geometrie_origineel": "POINT (127820.47874190801 479070.9871031151)", "dumpplek": false, "aantal_handhavingen": 60}}, {"type": "Feature", "geometry": {"type": "Point", "coordinates": [4.846444532246228, 52.37555614134403]}, "properties": {"id": 198, "Unnamed: 0": 772, "bag_openbareruimte_id": 363300000002993.0, "totaal_bijplaatsingen": 997, "aantal_grofvuil": 692, "stadsdeel": "West", "postcode": "1055SC", "adres": "Bos en Lommerplantsoen 12", "geometrie_origineel": "POINT (118176.6734126973 487657.81973098894)", "dumpplek": false, "aantal_handhavingen": 84}}, {"type": "Feature", "geometry": {"type": "Point", "coordinates": [4.813350167159472, 52.37454074420255]}, "properties": {"id": 199, "Unnamed: 0": 2099, "bag_openbareruimte_id": 363300000004969.0, "totaal_bijplaatsingen": 995, "aantal_grofvuil": 567, "stadsdeel": "Nieuw-West", "postcode": "1064ZH", "adres": "Socratesstraat 26", "geometrie_origineel": "POINT (115922.23233942702 487562.1750378896)", "dumpplek": false, "aantal_handhavingen": 51}}, {"type": "Feature", "geometry": {"type": "Point", "coordinates": [4.874023114152008, 52.37451183255009]}, "properties": {"id": 200, "Unnamed: 0": 2282, "bag_openbareruimte_id": 363300000005232.0, "totaal_bijplaatsingen": 986, "aantal_grofvuil": 475, "stadsdeel": "West", "postcode": "1052KG", "adres": "Van Oldenbarneveldtstraat 80", "geometrie_origineel": "POINT (120053.8062962619 487527.97082371166)", "dumpplek": false, "aantal_handhavingen": 73}}, {"type": "Feature", "geometry": {"type": "Point", "coordinates": [4.830243972152834, 52.350058801574775]}, "properties": {"id": 201, "Unnamed: 0": 655, "bag_openbareruimte_id": 363300000002824.0, "totaal_bijplaatsingen": 979, "aantal_grofvuil": 435, "stadsdeel": "Nieuw-West", "postcode": "1066XH", "adres": "Elisabeth Boddaertstraat 20", "geometrie_origineel": "POINT (117051.70091336867 484829.2810584665)", "dumpplek": false, "aantal_handhavingen": 99}}, {"type": "Feature", "geometry": {"type": "Point", "coordinates": [4.839108066225121, 52.359285533287256]}, "properties": {"id": 202, "Unnamed: 0": 1086, "bag_openbareruimte_id": 363300000003492.0, "totaal_bijplaatsingen": 978, "aantal_grofvuil": 382, "stadsdeel": "Nieuw-West", "postcode": "1062CK", "adres": "Johan Jongkindstraat 5", "geometrie_origineel": "POINT (117663.40820022486 485851.2639196224)", "dumpplek": false, "aantal_handhavingen": 59}}, {"type": "Feature", "geometry": {"type": "Point", "coordinates": [4.86355834192525, 52.345833601513625]}, "properties": {"id": 203, "Unnamed: 0": 2148, "bag_openbareruimte_id": 363300000005030.0, "totaal_bijplaatsingen": 977, "aantal_grofvuil": 526, "stadsdeel": "Zuid", "postcode": "1076NN", "adres": "Stadionweg 175", "geometrie_origineel": "POINT (119318.13946570276 484342.25515600113)", "dumpplek": true, "aantal_handhavingen": 83}}, {"type": "Feature", "geometry": {"type": "Point", "coordinates": [4.903149831768294, 52.35626774132756]}, "properties": {"id": 204, "Unnamed: 0": 497, "bag_openbareruimte_id": 363300000002582.0, "totaal_bijplaatsingen": 976, "aantal_grofvuil": 530, "stadsdeel": "Zuid", "postcode": "1074XS", "adres": "Tweede Jan van der Heijdenstraat 79", "geometrie_origineel": "POINT (122023.67502066819 485484.43242681585)", "dumpplek": false, "aantal_handhavingen": 94}}, {"type": "Feature", "geometry": {"type": "Point", "coordinates": [4.89131873184217, 52.35678404135668]}, "properties": {"id": 205, "Unnamed: 0": 1832, "bag_openbareruimte_id": 363300000004602.0, "totaal_bijplaatsingen": 973, "aantal_grofvuil": 433, "stadsdeel": "Zuid", "postcode": "1072XX", "adres": "Quellijnstraat 86", "geometrie_origineel": "POINT (121218.08018442639 485547.32591711724)", "dumpplek": false, "aantal_handhavingen": 62}}, {"type": "Feature", "geometry": {"type": "Point", "coordinates": [4.955003631727537, 52.39202174092066]}, "properties": {"id": 206, "Unnamed: 0": 1997, "bag_openbareruimte_id": 363300000004821.0, "totaal_bijplaatsingen": 969, "aantal_grofvuil": 507, "stadsdeel": "Noord", "postcode": "1024LT", "adres": "Waterlandplein 271", "geometrie_origineel": "POINT (125579.9201393773 489440.22062967625)", "dumpplek": false, "aantal_handhavingen": 81}}, {"type": "Feature", "geometry": {"type": "Point", "coordinates": [4.930025411660126, 52.36315885120231]}, "properties": {"id": 207, "Unnamed: 0": 482, "bag_openbareruimte_id": 363300000002563.0, "totaal_bijplaatsingen": 967, "aantal_grofvuil": 341, "stadsdeel": "Oost", "postcode": "1093GM", "adres": "Eerste Van Swindenstraat 132", "geometrie_origineel": "POINT (123859.39918684281 486239.27027399314)", "dumpplek": false, "aantal_handhavingen": 110}}, {"type": "Feature", "geometry": {"type": "Point", "coordinates": [4.909661405771948, 52.3574687638986]}, "properties": {"id": 208, "Unnamed: 0": 2028, "bag_openbareruimte_id": 363300000004866.0, "totaal_bijplaatsingen": 963, "aantal_grofvuil": 442, "stadsdeel": "Oost", "postcode": "1091GM", "adres": "Ruyschstraat 45", "geometrie_origineel": "POINT (122468.1534892917 485615.11897761514)", "dumpplek": false, "aantal_handhavingen": 88}}, {"type": "Feature", "geometry": {"type": "Point", "coordinates": [4.986791990823811, 52.2959112015403]}, "properties": {"id": 209, "Unnamed: 0": 2469, "bag_openbareruimte_id": 363300000005488.0, "totaal_bijplaatsingen": 963, "aantal_grofvuil": 460, "stadsdeel": "Zuidoost", "postcode": "1107NB", "adres": "Wisseloord 83", "geometrie_origineel": "POINT (127684.68397949563 478734.23816681834)", "dumpplek": false, "aantal_handhavingen": 59}}, {"type": "Feature", "geometry": {"type": "Point", "coordinates": [4.883606832048642, 52.37843364121972]}, "properties": {"id": 210, "Unnamed: 0": 2020, "bag_openbareruimte_id": 363300000004855.0, "totaal_bijplaatsingen": 961, "aantal_grofvuil": 274, "stadsdeel": "Centrumlocaties", "postcode": "Nederland", "adres": "Tuinstraat", "geometrie_origineel": "POINT (120709.45532541517 487959.74509227974)", "dumpplek": true, "aantal_handhavingen": 415}}, {"type": "Feature", "geometry": {"type": "Point", "coordinates": [4.919848125889721, 52.37342853362476]}, "properties": {"id": 211, "Unnamed: 0": 2551, "bag_openbareruimte_id": 363300000005644.0, "totaal_bijplaatsingen": 961, "aantal_grofvuil": 413, "stadsdeel": "Centrum", "postcode": "postcode niet in CMS", "adres": "Kattenburgerstraat 176", "geometrie_origineel": "POINT (123173.55139145206 487386.32890275406)", "dumpplek": false, "aantal_handhavingen": 62}}, {"type": "Feature", "geometry": {"type": "Point", "coordinates": [4.879994731981476, 52.36653534131678]}, "properties": {"id": 212, "Unnamed: 0": 1836, "bag_openbareruimte_id": 363300000004607.0, "totaal_bijplaatsingen": 961, "aantal_grofvuil": 506, "stadsdeel": "Centrum", "postcode": "1016XK", "adres": "Raamplein 1", "geometrie_origineel": "POINT (120454.2406844362 486637.6203069842)", "dumpplek": false, "aantal_handhavingen": 433}}, {"type": "Feature", "geometry": {"type": "Point", "coordinates": [4.890386631827419, 52.35404974137928]}, "properties": {"id": 213, "Unnamed: 0": 465, "bag_openbareruimte_id": 363300000002544.0, "totaal_bijplaatsingen": 959, "aantal_grofvuil": 338, "stadsdeel": "Zuid", "postcode": "1072NE", "adres": "Eerste Jan Steenstraat 85", "geometrie_origineel": "POINT (121152.49675842695 485243.53528714686)", "dumpplek": false, "aantal_handhavingen": 59}}, {"type": "Feature", "geometry": {"type": "Point", "coordinates": [4.998221941189489, 52.35452619107559]}, "properties": {"id": 214, "Unnamed: 0": 45, "bag_openbareruimte_id": 363300000001016.0, "totaal_bijplaatsingen": 956, "aantal_grofvuil": 470, "stadsdeel": "Oost", "postcode": "1087JD", "adres": "Kiekstraat 22", "geometrie_origineel": "POINT (128499.39691240815 485251.6562787857)", "dumpplek": false, "aantal_handhavingen": 91}}, {"type": "Feature", "geometry": {"type": "Point", "coordinates": [4.865676796026501, 52.3669829230272]}, "properties": {"id": 215, "Unnamed: 0": 441, "bag_openbareruimte_id": 363300000002506.0, "totaal_bijplaatsingen": 953, "aantal_grofvuil": 532, "stadsdeel": "West", "postcode": "1053BG", "adres": "Bellamystraat 35", "geometrie_origineel": "POINT (119479.42405829608 486694.3406243026)", "dumpplek": false, "aantal_handhavingen": 132}}, {"type": "Feature", "geometry": {"type": "Point", "coordinates": [4.847655532066195, 52.35221364151099]}, "properties": {"id": 216, "Unnamed: 0": 2070, "bag_openbareruimte_id": 363300000004929.0, "totaal_bijplaatsingen": 950, "aantal_grofvuil": 450, "stadsdeel": "Zuid", "postcode": "1058LP", "adres": "Hillegomstraat 35", "geometrie_origineel": "POINT (118239.80084071608 485060.0597881475)", "dumpplek": false, "aantal_handhavingen": 96}}, {"type": "Feature", "geometry": {"type": "Point", "coordinates": [4.91581203210713, 52.41165614088683]}, "properties": {"id": 217, "Unnamed: 0": 2383, "bag_openbareruimte_id": 363300000005363.0, "totaal_bijplaatsingen": 949, "aantal_grofvuil": 452, "stadsdeel": "Noord", "postcode": "1034SV", "adres": "Voordek 41", "geometrie_origineel": "POINT (122926.3697307593 491641.45314563444)", "dumpplek": false, "aantal_handhavingen": 45}}, {"type": "Feature", "geometry": {"type": "Point", "coordinates": [4.842626132319211, 52.38235564130505]}, "properties": {"id": 218, "Unnamed: 0": 688, "bag_openbareruimte_id": 363300000002868.0, "totaal_bijplaatsingen": 947, "aantal_grofvuil": 421, "stadsdeel": "West", "postcode": "1061HE", "adres": "Ferdinand Huyckstraat 11", "geometrie_origineel": "POINT (117922.34615821305 488416.2983299725)", "dumpplek": false, "aantal_handhavingen": 28}}, {"type": "Feature", "geometry": {"type": "Point", "coordinates": [4.915027731905697, 52.38416674109015]}, "properties": {"id": 219, "Unnamed: 0": 2122, "bag_openbareruimte_id": 363300000005003.0, "totaal_bijplaatsingen": 946, "aantal_grofvuil": 368, "stadsdeel": "Noord", "postcode": "1021GX", "adres": "Spreeuwenpark 36C", "geometrie_origineel": "POINT (122853.07556588002 488583.22570736223)", "dumpplek": false, "aantal_handhavingen": 49}}, {"type": "Feature", "geometry": {"type": "Point", "coordinates": [4.792051332477541, 52.363676141581]}, "properties": {"id": 220, "Unnamed: 0": 1922, "bag_openbareruimte_id": 363300000004724.0, "totaal_bijplaatsingen": 942, "aantal_grofvuil": 321, "stadsdeel": "Nieuw-West", "postcode": "1069MS", "adres": "Ookmeerweg 248", "geometrie_origineel": "POINT (114461.9396872914 486365.0542836838)", "dumpplek": false, "aantal_handhavingen": 40}}, {"type": "Feature", "geometry": {"type": "Point", "coordinates": [4.841718122309826, 52.38037518132205]}, "properties": {"id": 221, "Unnamed: 0": 552, "bag_openbareruimte_id": 363300000002659.0, "totaal_bijplaatsingen": 933, "aantal_grofvuil": 433, "stadsdeel": "West", "postcode": "1061ED", "adres": "Akbarstraat 50", "geometrie_origineel": "POINT (117858.86631159758 488196.41166489053)", "dumpplek": false, "aantal_handhavingen": 43}}, {"type": "Feature", "geometry": {"type": "Point", "coordinates": [4.847836666885704, 52.38329584389268]}, "properties": {"id": 222, "Unnamed: 0": 1736, "bag_openbareruimte_id": 363300000004458.0, "totaal_bijplaatsingen": 929, "aantal_grofvuil": 562, "stadsdeel": "West", "postcode": "1055LC", "adres": "Sara Burgerhartstraat 62", "geometrie_origineel": "POINT (118277.87987032495 488518.25476209394)", "dumpplek": false, "aantal_handhavingen": 64}},